CODICE_ISIL,DENOMINAZIONE,TIPOLOGIA_FUNZIONALE,TIPOLOGIA_AMMINISTRATIVA,CODICE_SBN,INDIRIZZO,NUM,CAP,COMUNE,PROVINCIA,TELEFONO,FAX,EMAIL,SITO_WEB,PAGINA_WEB,PEC,SCHEDABIBLIO,LONGITUDINE,LATITUDINE
IT-CA0002,"Arbus - Biblioteca Comunale","Di pubblica lettura","Enti locali",USS64,"Piazza San Lussorio"," ",09031,Arbus,SU,"+39  070 7340529","+39 070 7731730",protocollo@comunediarbus.gov.it,,,protocollo.arbus@pec.comunas.it,http://www.sardegnabiblioteche.it/index.php?xsl=839&s=2&v=9&c=5670&codice=IT-CA0002," 8.599578",39.526074
IT-CA0004,"Armungia - Biblioteca comunale Emilio Lussu","Di pubblica lettura","Enti locali",CAG7A,"Via Gramsci",snc,09040,Armungia,SU,"+39 070 958133","+39 070 958076",biblioteca@comune.armungia.ca.it,,,protocollo@pec.comune.armungia.ca.it,http://www.sardegnabiblioteche.it/index.php?xsl=839&s=2&v=9&c=5670&codice=IT-CA0004,9.359821699999998,39.55146269999999
IT-CA0005,"Ballao - Biblioteca comunale Giorgio Mastino Del Rio","Di pubblica lettura","Enti locali",CAG7B,"Piazza Municipio",14,09040,Ballao,SU,"+39 070 957386","+39 070 957187",biblioballao@tiscali.it,,,protocolloballao@servizipostacert.it,http://www.sardegnabiblioteche.it/index.php?xsl=839&s=2&v=9&c=5670&codice=IT-CA0005,9.36351400000001,39.5492061
IT-CA0006,"Barumini - Biblioteca comunale Antonio Segni","Di pubblica lettura","Enti locali",,"Piazza San Francesco"," ",09021,Barumini,SU,"+39 070 9361020","+39 070 9361020",biblioteca.barumini@tiscali.it,,,segreteria.barumini@pec.comunas.it,http://www.sardegnabiblioteche.it/index.php?xsl=839&s=2&v=9&c=5670&codice=IT-CA0006,9.001653199999964,39.7006251
IT-CA0008,"Buggerru -  Biblioteca comunale","Di pubblica lettura","Enti locali",,"Via Roma",40,09010,Buggerru,SU,"+39 0781 54303","+39 0781 54424",protocollo@comunebuggerru.it,,,comune.buggerru@pec.it,http://www.sardegnabiblioteche.it/index.php?xsl=839&s=2&v=9&c=5670&codice=IT-CA0008," 8.400695000000041",39.39803
IT-CA0009,"Cagliari - Biblioteca dell\'Unione Italiana Ciechi. Sezione provinciale ",Speciale,"Enti privati e associazioni",,"Via del Platano",27,09131,Cagliari,CA,"+39 070 523422","+39 070 523613",uicca@uiciechi.it,,,uicica@pec.it,http://www.sardegnabiblioteche.it/index.php?xsl=839&s=2&v=9&c=5670&codice=IT-CA0009,9.1251082,39.2353224
IT-CA0010,"Cagliari - Biblioteca comunale Generale e di Studi Sardi (presso la MEM)","Di pubblica lettura","Enti locali",CAGSS,"Via Mameli ",164,09123,Cagliari,CA,"+39 070 6773865/3862/3863/3859/60",,mem@comune.cagliari.it,,,protocollogenerale@comune.cagliari.legalmail.it,http://www.sardegnabiblioteche.it/index.php?xsl=839&s=2&v=9&c=5670&codice=IT-CA0010,9.104936199999997,39.2208437
IT-CA0011,"Università degli studi di Cagliari - Biblioteca del Distretto Tecnologico - Sezione Ingegneria ","Di supporto alla ricerca e alla didattica nell’Università",Università,CAGFI,"Via Marengo 2 "," ",09123,Cagliari,CA,"+39 070 6755035","+39 070 6755039","biblioing@unica.it ",,www.unica.it/unica/it/sba_tec_fi.page,,http://www.sardegnabiblioteche.it/index.php?xsl=839&s=2&v=9&c=5670&codice=IT-CA0011,9.109768099999997,39.2292071
IT-CA0013,"Cagliari - Biblioteca Padri Gesuiti",Speciale,"Enti ecclesiastici",,"Via Ospedale",8,09124,Cagliari,CA,"+39 070 658626","+39 070 6852543",comsjca@gesuiti.it,,,,http://www.sardegnabiblioteche.it/index.php?xsl=839&s=2&v=9&c=5670&codice=IT-CA0013,9.11175060000005,39.2194686
IT-CA0014,"Cagliari - Biblioteca San Tommaso d'Aquino del Convento P.P. Domenicani",Speciale,"Enti ecclesiastici",CAGTD,"Piazza San Domenico",5,09127,Cagliari,CA,"+39 070 655105",,biblioteca.cgd@gmail.com,,,,http://www.sardegnabiblioteche.it/index.php?xsl=839&s=2&v=9&c=5670&codice=IT-CA0014,9.119053200000053,39.2173032
IT-CA0015,"Cagliari - Biblioteca provinciale dei Frati Minori Cappuccini di Sardegna",Speciale,"Enti ecclesiastici",,"Viale S. Ignazio da Laconi",94,09123,Cagliari,CA,"+39 070 657370/663655","+39 070 655583",focusmeli@gmail.com,,,,http://www.sardegnabiblioteche.it/index.php?xsl=839&s=2&v=9&c=5670&codice=IT-CA0015,9.112419799999998,39.224345
IT-CA0016,"Cagliari - Biblioteca Argea Sardegna Servizio territoriale Cagliari",Speciale,"Regione ed enti regionali",,"Via Caprera",8,09123,Cagliari,CA,"+39 070 6067149","+39 070 6067153",,,,argea@pec.agenziaargea.it,http://www.sardegnabiblioteche.it/index.php?xsl=839&s=2&v=9&c=5670&codice=IT-CA0016,9.10781780000002,39.2183658
IT-CA0017,"Cagliari - Biblioteca dell\'Archivio di Stato di Cagliari",Speciale,"Ministero per i beni e le attività culturali",CAGAS,"Via Gallura",2,09125,Cagliari,CA,"+39 070 669450/665772","+39 070 653401",as-ca@beniculturali.it,,,mbac-as-ca@mailcert.beniculturali.it,http://www.sardegnabiblioteche.it/index.php?xsl=839&s=2&v=9&c=5670&codice=IT-CA0017,9.119694999999979,39.21350229999999
IT-CA0018,"Cagliari - Biblioteca del Seminario Arcivescovile Santa Cecilia",Speciale,"Enti ecclesiastici",,"Via G. Cogoni",9,09121,Cagliari,CA,"+39 070 528431",,seminario@diocesidicagliari.it,,,,http://www.sardegnabiblioteche.it/index.php?xsl=839&s=2&v=9&c=5670&codice=IT-CA0018,9.114309999999932,39.2396367
IT-CA0019,"Cagliari - Biblioteca del Convento di Santa Rosalia",Speciale,"Enti ecclesiastici",,"Via Principe Amedeo",24,09124,Cagliari,CA,"+39 070 655481",,,,,,http://www.sardegnabiblioteche.it/index.php?xsl=839&s=2&v=9&c=5670&codice=IT-CA0019,9.115921800000024,39.2150893
IT-CA0020,"Cagliari - Biblioteca del Convento di San Mauro",Speciale,"Enti ecclesiastici",,"Via S. Giovanni",283,09100,Cagliari,CA,"+39 070 666742",,fratisanmaurosog@gmail.com,,,,http://www.sardegnabiblioteche.it/index.php?xsl=839&s=2&v=9&c=5670&codice=IT-CA0020,9.119807400000013,39.2220086
IT-CA0021,"Cagliari - Biblioteca del Convento di Nostra Signora di Bonaria",Speciale,"Enti ecclesiastici",,"Piazza Bonaria",2,09125,Cagliari,CA,"+39 070 301747","+39 070 303182",,,,,http://www.sardegnabiblioteche.it/index.php?xsl=839&s=2&v=9&c=5670&codice=IT-CA0021,9.125218,39.208473
IT-CA0022,"Cagliari - Biblioteca del Consiglio regionale della Sardegna",Speciale,"Regione ed enti regionali",,"Via Roma",25,09125,Cagliari,CA,"+39 070 60141","+39 070 650373",serv.biblioteca@consregsardegna.it,,,consiglioregionale@pec.crsardegna.it,http://www.sardegnabiblioteche.it/index.php?xsl=839&s=2&v=9&c=5670&codice=IT-CA0022,9.112963199999967,39.2138736
IT-CA0023,"Cagliari - Biblioteca del Conservatorio di musica Giovanni Pierluigi da Palestrina",Scolastica,"Istituti scolastici",CAGPP,"Piazza E. Porrino",1,09128,Cagliari,CA,"+39 070 493118","+39 070 487388",biblioteca@conservatoriocagliari.it,,,protocollo@conservatoriocagliari.eu,http://www.sardegnabiblioteche.it/index.php?xsl=839&s=2&v=9&c=5670&codice=IT-CA0023,9.121344300000032,39.2253005
IT-CA0025,"Università degli studi di Cagliari - Biblioteca del Distretto biomedico scientifico - Fondo librario di Scienze botaniche","Di supporto alla ricerca e alla didattica nell’Università",Università,CAGSB,"Viale S. Ignazio",13,09123,Cagliari,CA,"+39 070 6754551/4290","+39 070 6754278 ","biblio.bs@unica.it ",,,,http://www.sardegnabiblioteche.it/index.php?xsl=839&s=2&v=9&c=5670&codice=IT-CA0025,9.172821999999996,39.25507
IT-CA0028,"Cagliari - Biblioteca militare di presidio del Comando Militare Esercito Sardegna",Speciale,Ministeri,,"Viale Buoncammino",2,09124,Cagliari,CA,"+39 070 60349252 ",,dirbiblioteca@cmeca.esercito.difesa.it,,,,http://www.sardegnabiblioteche.it/index.php?xsl=839&s=2&v=9&c=5670&codice=IT-CA0028,9.116019999999935,39.22229
IT-CA0029,"Cagliari - Biblioteca del Comando marina militare",Speciale,Ministeri,,"Viale Colombo",9,09125,Cagliari,CA,"+39 070 6039293","+39 070 6039500",,,,,http://www.sardegnabiblioteche.it/index.php?xsl=839&s=2&v=9&c=5670&codice=IT-CA0029,9.115935100000002,39.2103682
IT-CA0030,"Cagliari - Biblioteca della Soprintendenza Archeologia, belle arti e paesaggio per la città metropolitana di Cagliari e le province di Oristano e Sud Sardegna (SABAP)",Speciale,"Ministero per i beni e le attività culturali",CAGBS,"Viale Trento",98,09123,Cagliari,CA,"+39 070 2010363/66","+39 070 2086163",mariafrancesca.ollosu@beniculturali.it,,www.sabapca.beniculturali.it,mbac-sabap-ca@mailcert.beniculturali.it,http://www.sardegnabiblioteche.it/index.php?xsl=839&s=2&v=9&c=5670&codice=IT-CA0030,9.10370940000007,39.2238919
IT-CA0031,"Cagliari - Biblioteca della Soprintendenza archivistica per la Sardegna",Speciale,"Ministero per i beni e le attività culturali",CAGSL,"Via Marche",15/17,09127,Cagliari,CA,"+39 070 401610","+39 070 401920","sa-sar@beniculturali.it ",,,mbac-sa-sar@mailcert.beniculturali.it ,http://www.sardegnabiblioteche.it/index.php?xsl=839&s=2&v=9&c=5670&codice=IT-CA0031,9.11922770000001,39.2273377
IT-CA0032,"Cagliari - Biblioteca della Pontificia Facoltà teologica della Sardegna",Speciale,"Enti ecclesiastici",CAGPF,"Via Sanjust",13,09129,Cagliari,CA,"+39 070 407159","+39 070 4071547",biblioteca@pfts.it,,www.pfts.it/biblioteca/presentazione,pftscagliari@pec.it,http://www.sardegnabiblioteche.it/index.php?xsl=839&s=2&v=9&c=5670&codice=IT-CA0032,9.131505800000014,39.2197829
IT-CA0033,"Università degli studi di Cagliari - Biblioteca del Distretto delle Scienze umane - Sezione Dante Alighieri","Di supporto alla ricerca e alla didattica nell’Università",Università,CAGIL,"Via Trentino",s.n.,09127,Cagliari,CA,"+39 070 6757418",,dante.su@unica.it,,www.unica.it/unica/it/sba_scium_dante_alighieri.page,,http://www.sardegnabiblioteche.it/index.php?xsl=839&s=2&v=9&c=5670&codice=IT-CA0033,9.114045499999975,39.23081210000001
IT-CA0034,"Università degli studi di Cagliari - Biblioteca del Distretto delle Scienze sociali, economiche e giuridiche - Sezione Scienze economiche","Di supporto alla ricerca e alla didattica nell’Università",Università,CAGFE,"Viale S. Ignazio",84,09123,Cagliari,CA,"39 070 6753389","+39 070 6753390",bibecon@unica.it,,www.unica.it/unica/it/sba_scienze_economiche.page,,http://www.sardegnabiblioteche.it/index.php?xsl=839&s=2&v=9&c=5670&codice=IT-CA0034,9.110904399999981,39.2234231
IT-CA0035,"Università degli studi di Cagliari - Biblioteca del Distretto delle Scienze sociali, economiche e giuridiche - Sezione Scienze giuridiche","Di supporto alla ricerca e alla didattica nell’Università",Università,CAGFG,"Viale S. Ignazio",17,09123,Cagliari,CA,"+39 070 6753830/3829","+39 070 6753800",giurpre@unica.it,,www.unica.it/unica/it/sba__bib_scienze_giuridiche.page,,http://www.sardegnabiblioteche.it/index.php?xsl=839&s=2&v=9&c=5670&codice=IT-CA0035,9.17281479999997,39.2551701
IT-CA0036,"Università degli studi di Cagliari - Biblioteca del Distretto biomedico scientifico - Fondo librario di Biologia animale","Di supporto alla ricerca e alla didattica nell’Università",Università,CAGBA,"Via Ing. Tommaso Fiorelli (ex Viale Poetto) ",1,09126,Cagliari,CA,"+39 070 6754551/4290","+39 070 6754278",biblio.bs@unica.it,,,,http://www.sardegnabiblioteche.it/index.php?xsl=839&s=2&v=9&c=5670&codice=IT-CA0036,9.14102349999996,39.2031601
IT-CA0039,"Cagliari - Biblioteca della Deputazione di storia patria per la Sardegna",Speciale,"Enti privati e associazioni",,"Via Cadello",9/bis,09121,Cagliari,CA,"+39 070 4092764/4092765","+39 070 502521",deputazione@deputazionestoriapatriasardegna.it,,,,http://www.sardegnabiblioteche.it/index.php?xsl=839&s=2&v=9&c=5670&codice=IT-CA0039,9.116652499999987,39.2382239
IT-CA0040,"Cagliari - Biblioteca della Casa della Missione",Speciale,"Enti ecclesiastici",,"Piazza S. Domenico",3,09127,Cagliari,CA,"+39 070 651005","+39 070 651385",,,,,http://www.sardegnabiblioteche.it/index.php?xsl=839&s=2&v=9&c=5670&codice=IT-CA0040,9.11910439999997,39.2172353
IT-CA0043,"Cagliari - Biblioteca della Camera di commercio, industria, artigianato e agricoltura - CCIAA",Speciale,"Camere di commercio, industria, artigianato",CAGCM,"Largo Carlo Felice",72,09124,Cagliari,CA,"+39 070 60512455","+39 070 60512435",biblioteca@ca.camcom.it,www.ca.camcom.gov.it/IT/Page/t01/view_html?idp=33,,cciaa@ca.legalmail.camcom.it,http://www.sardegnabiblioteche.it/index.php?xsl=839&s=2&v=9&c=5670&codice=IT-CA0043,9.113159999999993,39.2172
IT-CA0045,"Cagliari - Biblioteca dell'Osservatorio per le malattie delle piante per la Sardegna",Speciale,"Regione ed enti regionali",,"Via Roma",80,09100,Cagliari,CA,"+39 070 6066595",,,,,,http://www.sardegnabiblioteche.it/index.php?xsl=839&s=2&v=9&c=5670&codice=IT-CA0045,9.10509819999993,39.2189645
IT-CA0046,"Cagliari - Biblioteca dell'Azienda sanitaria locale - ASL 8 (ex ospedale psichiatrico)",Speciale,"Aziende sanitarie locali (ASL)",,"Via Romagna",16,09100,Cagliari,CA,"+39 070 47443451","+39 070 47443411",,,,,http://www.sardegnabiblioteche.it/index.php?xsl=839&s=2&v=9&c=5670&codice=IT-CA0046,9.118617800000038,39.2280369
IT-CA0055,"Università degli studi di Cagliari - Biblioteca del Distretto delle Scienze umane - Sezione Scienze del linguaggio","Di supporto alla ricerca e alla didattica nell’Università",Università,CAGLS," Via S. Giorgio",12,09124,Cagliari,CA,"+39 070 6756210",,scienzelinguaggio.su@unica.it,,www.unica.it/unica/it/sba_scium_scienze_linguaggio.page,,http://www.sardegnabiblioteche.it/index.php?xsl=839&s=2&v=9&c=5670&codice=IT-CA0055,9.113489999999956,39.2207
IT-CA0077,"Università degli studi di Cagliari - Biblioteca del Distretto Tecnologico - Sezione Architettura","Di supporto alla ricerca e alla didattica nell’Università",Università,CAGAR,"Via Corte d\'Appello",87,09124,Cagliari,CA,"+39 070 6755348","+39 070 6755339",biblioarch@unica.it,,www.unica.it/unica/it/sba_tec_ar.page,,http://www.sardegnabiblioteche.it/index.php?xsl=839&s=2&v=9&c=5670&codice=IT-CA0077,9.11498000000006,39.21998
IT-CA0079,"Carbonia - Biblioteca comunale Pietro Doneddu","Di pubblica lettura","Enti locali",CAGS5,"Viale Arsia (Parco Villa Sulcis)"," ",09013,Carbonia,SU,"+39 0781 675074 - 0781 665187",,biblioteca.carbonia@sbis.it,,www.sbis.it/le-biblioteche/carbonia.html,comcarbonia@pec.comcarbonia.org,http://www.sardegnabiblioteche.it/index.php?xsl=839&s=2&v=9&c=5670&codice=IT-CA0079,8.52475030000005,39.1637165
IT-CA0081,"Carloforte - Biblioteca comunale Edmondo De Amicis","Di pubblica lettura","Enti locali",CAGH5,"Via  La Marmora",44,09014,Carloforte,SU,"+39 0781 856543","+39 0781 856543",biblioteca.carloforte@gmail.com,,www.sbis.it/le-biblioteche/carloforte.html,protocollo@pec.comune.carloforte.ca.it,http://www.sardegnabiblioteche.it/index.php?xsl=839&s=2&v=9&c=5670&codice=IT-CA0081,8.305882999999994,39.14495
IT-CA0083,"Collinas - Biblioteca comunale Giovanni Battista Tuveri","Di pubblica lettura","Enti locali",,"Vico 3° - Vittorio Emanuele 3°,",3,09020,Collinas,SU,"+39 070 9304007","+39 070 9304242",biblioteca.collinas@gmail.com,,,info@pec.comune.collinas.vs.it,http://www.sardegnabiblioteche.it/index.php?xsl=839&s=2&v=9&c=5670&codice=IT-CA0083,8.840694999999982,39.640777
IT-CA0084,"Decimoputzu - Biblioteca comunale","Di pubblica lettura","Enti locali",USS34,"Via Nora",1,09010,Decimoputzu,SU,"+39 070 965635/96329224",,biblioteca@comune.decimoputzu.ca.it,,,protocollo.decimoputzu@legalmail.it,http://www.sardegnabiblioteche.it/index.php?xsl=839&s=2&v=9&c=5670&codice=IT-CA0084,8.917376999999988,39.3312021
IT-CA0085,"Domusnovas - Biblioteca comunale Gesualdo Pellegrini","Di pubblica lettura","Enti locali",CAG5D,"Piazza Giovanni Leccis",1,09015,Domusnovas,SU,"+39 0781 70326","+39 0781 72339",biblioteca.comunale@comune.domusnovas.ci.it,digilander.libero.it/bibliotecadomusnovas,,comune.domusnovas@pec.it,http://www.sardegnabiblioteche.it/index.php?xsl=839&s=2&v=9&c=5670&codice=IT-CA0085,8.6506625,39.320256
"IT-CA0087 ","Fluminimaggiore - Biblioteca comunale","Di pubblica lettura","Enti locali",,"Via Vittorio Emanuele",202,09010,Fluminimaggiore,SU,"+39 0781 5850213","+39 0781 580519",info@comune.fluminimaggiore.ca.it,,,info@pec.comune.fluminimaggiore.ca.it,"http://www.sardegnabiblioteche.it/index.php?xsl=839&s=2&v=9&c=5670&codice=IT-CA0087 ",8.497889699999973,39.4365068
IT-CA0088,"Furtei - Biblioteca comunale","Di pubblica lettura","Enti locali",,"Via Madre Teresa di Calcutta",1,09040,Furtei,SU,"+39 070 9302753",,bibliocomfurtei@tiscali.it,,,protocollo@pec.comune.furtei.ca.it,http://www.sardegnabiblioteche.it/index.php?xsl=839&s=2&v=9&c=5670&codice=IT-CA0088,8.945073800000046,39.5652982
IT-CA0089,"Gesturi - Biblioteca comunale","Di pubblica lettura","Enti locali",,"Via Umberto","11 ",09020,Gesturi,SU,"+39 070 9369359","+39 070 9369379",bibliogesturi@gmail.com,,,protocollo.gesturi@pec.comunas.it,http://www.sardegnabiblioteche.it/index.php?xsl=839&s=2&v=9&c=5670&codice=IT-CA0089,9.020319699999959,39.7331025
IT-CA0091,"Giba - Biblioteca comunale ","Di pubblica lettura","Enti locali",CAG5B,"Via Principe di Piemonte",135,09010,Giba,SU,"+39 0781 964980","+39 0781 964980",biblioteca.giba@sbis.it,,www.sbis.it/le-biblioteche/giba.html,protocollo.giba@legalmail.it,http://www.sardegnabiblioteche.it/index.php?xsl=839&s=2&v=9&c=5670&codice=IT-CA0091,8.636572500000057,39.0717246
IT-CA0092,"Goni - Biblioteca comunale","Di pubblica lettura","Enti locali",CAG7G,"Via Ezzelino Pilia","  ",09040,Goni,SU,"+39 070 982165","+39 070 982165",biblioteca.goni@tiscali.it,,,protocollo.goni@servizipostacert.it,http://www.sardegnabiblioteche.it/index.php?xsl=839&s=2&v=9&c=5670&codice=IT-CA0092,9.28902990000006,39.5789487
IT-CA0094,"Gonnesa - Biblioteca comunale","Di pubblica lettura","Enti locali",CAG5G,"Piazza del Minatore"," ",09010,Gonnesa,SU,"+39 0781 469007","+39 0781 469007",bibliotecagonnesa@tiscali.it,,www.sbis.it/le-biblioteche/gonnesa.html,protocollo@pec.comune.gonnesa.ca.it,http://www.sardegnabiblioteche.it/index.php?xsl=839&s=2&v=9&c=5670&codice=IT-CA0094,8.47029299999997,39.2687877
IT-CA0095,"Gonnosfanadiga - Biblioteca comunale","Di pubblica lettura","Enti locali",USS65,"Via Gramsci",19-21,09035,Gonnosfanadiga,SU,"+39 070 9795260/9795261",,biblioteca@comune.gonnosfanadiga.ca.it,,,protocollo.gonnosfanadiga@servizipostacert.it,http://www.sardegnabiblioteche.it/index.php?xsl=839&s=2&v=9&c=5670&codice=IT-CA0095,8.667230000000018,39.49131
IT-CA0096,"Guamaggiore - Biblioteca comunale","Di pubblica lettura","Enti locali",USS06,"Piazza Don Eugenio Pisano",10,09040,Guamaggiore,SU,"+39 070 985451","+39 070 985979",biblio2.guamaggiore@tiscali.it,,,protocollo.guamaggiore@servizipostacert.it,http://www.sardegnabiblioteche.it/index.php?xsl=839&s=2&v=9&c=5670&codice=IT-CA0096," 9.07318620000001",39.56920789999999
IT-CA0097,"Guasila - Biblioteca comunale","Di pubblica lettura","Enti locali",USS07,"Piazza De Gasperi "," ",09040,Guasila,SU,"+39 070 9837044/9791391 ",,segreteria@comune.guasila.ca.it,,,protocollo@pec.comune.guasila.ca.it,http://www.sardegnabiblioteche.it/index.php?xsl=839&s=2&v=9&c=5670&codice=IT-CA0097,9.04370419999998,39.5609112
IT-CA0098,"Guspini - Biblioteca comunale Sergio Atzeni","Di pubblica lettura","Enti locali",USS66,"Via San Nicolò",9,09036,Guspini,SU,"+39 070 9760601/9760602","+39 070 972366",biblioteca@comune.guspini.su.it,,,protocollo@pec.comune.guspini.vs.it,http://www.sardegnabiblioteche.it/index.php?xsl=839&s=2&v=9&c=5670&codice=IT-CA0098,8.626261999999997,39.542997
IT-CA0099,"Iglesias - Biblioteca comunale Nicolò Canelles","Di pubblica lettura","Enti locali",,"Via Gramsci",11,09016,Iglesias,SU,"+39 0781 41795","+39 0781 41795",biblioteca@comune.iglesias.ca.it,,,protocollo.comune.iglesias@pec.it,http://www.sardegnabiblioteche.it/index.php?xsl=839&s=2&v=9&c=5670&codice=IT-CA0099,8.535519099999988,39.3121739
IT-CA0100,"Iglesias - Biblioteca diocesana ",Speciale,"Enti ecclesiastici",PBEG8,"Via Tenente Cacciarru",1,09016,Iglesias,SU,"+39 0781 259150",,bibliodiocesiglesias@tiscali.it,,,,http://www.sardegnabiblioteche.it/index.php?xsl=839&s=2&v=9&c=5670&codice=IT-CA0100,8.53432029999999,39.3076043
IT-CA0101,"Lunamatrona - Biblioteca comunale","Di pubblica lettura","Enti locali",,"Via Adua",4,09022,Lunamatrona,SU,"+39 070 939670","+39 070 939678",biblioteca@comune.lunamatrona.ca.it,,,protocollo@pec.comune.lunamatrona.ca.it,http://www.sardegnabiblioteche.it/index.php?xsl=839&s=2&v=9&c=5670&codice=IT-CA0101,8.898511999999982,39.6513149
IT-CA0102,"Mandas - Biblioteca comunale Emilio Pisano","Di pubblica lettura","Enti locali",CAG1M,"Via Canonico Dessì"," ",09040,Mandas,SU,"+39 070 984753","+39 070 98780226",biblioteca.mandas@tiscali.it,,,comune.mandas@cert.legalmail.it,http://www.sardegnabiblioteche.it/index.php?xsl=839&s=2&v=9&c=5670&codice=IT-CA0102,9.128094000000033,39.652296
IT-CA0104,"Monastir - Biblioteca comunale Grazia Deledda","Di pubblica lettura","Enti locali",USS08,"Via San Pietro",1,09023,Monastir,SU,"+39 070 9168014","+39 070 91670227",pubblicaistruzione@comune.monastir.ca.it,,,protocollo.monastir@legalmail.it,http://www.sardegnabiblioteche.it/index.php?xsl=839&s=2&v=9&c=5670&codice=IT-CA0104,9.043771,39.386334
IT-CA0105,"Musei - Biblioteca comunale","Di pubblica lettura","Enti locali",CAGMU,"Piazza Italia",5,09010,Musei,SU,"+39 0781 70452","+39 0781 70452",biblioteca.musei@tiscali.it,,,comune.musei@legalmail.it,http://www.sardegnabiblioteche.it/index.php?xsl=839&s=2&v=9&c=5670&codice=IT-CA0105,8.670538699999952,39.3017238
IT-CA0106,"Narcao - Biblioteca comunale ","Di pubblica lettura","Enti locali",,"Vico I Marconi"," ",09010,Narcao,SU,"+39 0781 958027","+39 0781 9598275",biblioteca@comune.narcao.ci.it,,,protocollo@pec.comune.narcao.ci.it,http://www.sardegnabiblioteche.it/index.php?xsl=839&s=2&v=9&c=5670&codice=IT-CA0106,8.676451499999985,39.1674363
IT-CA0108,"Nuxis - Biblioteca comunale ","Di pubblica lettura","Enti locali",CAG5X,"Via Cagliari",65,09010,Nuxis,SU,"+39 0781 957013","+39 0781 957484",bibliotecanuxis@tiscali.it,,,protocollo.nuxis@pec.comunas.it,http://www.sardegnabiblioteche.it/index.php?xsl=839&s=2&v=9&c=5670&codice=IT-CA0108,8.740160199999991,39.1552244
IT-CA0110,"Pabillonis - Biblioteca comunale","Di pubblica lettura","Enti locali",USS67,"Via Su Rieddu",2,09030,Pabillonis,SU,"+39 070 9353957","+39 070 9353260",biblioteca@comune.pabillonis.vs.it,,,protocollo@pec.comunepabillonis.it,http://www.sardegnabiblioteche.it/index.php?xsl=839&s=2&v=9&c=5670&codice=IT-CA0110,8.719720999999936,39.595424
IT-CA0111,"Perdaxius - Biblioteca comunale  ","Di pubblica lettura","Enti locali",CAGQ5,"Via Cristoforo Colombo",27,09010,Perdaxius,SU,"+39 0781 952184",,biblioteca.perdaxius@sbis.it,,www.sbis.it/le-biblioteche/perdaxius.html,protocollo@pec.comune.perdaxius.ci.it,http://www.sardegnabiblioteche.it/index.php?xsl=839&s=2&v=9&c=5670&codice=IT-CA0111,8.611313699999982,39.1616528
IT-CA0112,"Pimentel - Biblioteca comunale","Di pubblica lettura","Enti locali",USS10,"Via Muratori",3,09020,Pimentel,SU,"+39 070 0956517","+39 070 9800340",biblioteca.pimentel@gmail.com,,,protocollo@pec.comune.pimentel.ca.it,http://www.sardegnabiblioteche.it/index.php?xsl=839&s=2&v=9&c=5670&codice=IT-CA0112,9.066460199999938,39.4874209
IT-CA0114,"Portoscuso - Biblioteca comunale ","Di pubblica lettura","Enti locali",CAG5S,"Via Galileo Galilei",1,09010,Portoscuso,SU,"+39 0781 5111440","+39 0781 508728 (comune)",biblioteca.portoscuso@sbis.it,,www.sbis.it/le-biblioteche/portoscuso.html,comune.portoscuso@pec.comune.portoscuso.ci.it,http://www.sardegnabiblioteche.it/index.php?xsl=839&s=2&v=9&c=5670&codice=IT-CA0114,8.378690000000006,39.2051714
IT-CA0115,"Quartu Sant'Elena - Biblioteca dei Frati Minori Francescani",Speciale,"Enti ecclesiastici",,"Via S. Antonio","46 ",09045,"Quartu Sant'Elena",CA,"+39 070 8696154",,,,,,http://www.sardegnabiblioteche.it/index.php?xsl=839&s=2&v=9&c=5670&codice=IT-CA0115,9.195100000000025,39.240777
IT-CA0116,"Quartu Sant\'Elena - Biblioteca Centrale","Di pubblica lettura","Enti locali",CAG8E,"Via Dante",68,09045,"Quartu Sant'Elena",CA,"+39 070 888064",,bibliocentrale@comune.quartusantelena.ca.it,,www.comune.quartusantelena.ca.it/faq.php?id=42,protocollo@pec.comune.quartusantelena.ca.it,http://www.sardegnabiblioteche.it/index.php?xsl=839&s=2&v=9&c=5670&codice=IT-CA0116,9.18446700000004,39.24438
IT-CA0117,"Samatzai - Biblioteca comunale","Di pubblica lettura","Enti locali",USS12,"Via Nuoro",4,09020,Samatzai,SU,"+39 070 910621","+39 070 910635",bibliotecasamatzai@gmail.com,,,protocollo.samatzai@pec.comunas.it,http://www.sardegnabiblioteche.it/index.php?xsl=839&s=2&v=9&c=5670&codice=IT-CA0117,9.035599100000013,39.4828699
IT-CA0118,"San Basilio - Biblioteca comunale","Di pubblica lettura","Enti locali",CAG7L,"Via Eleonora d\'Arborea",14,09040,"San Basilio",SU,"+39 070 9805440","+39 070 9805284 (Comune)",bibliotecasanbasilio@tiscali.it,,,protocollo@pec.comune.sanbasilio.ca.it,http://www.sardegnabiblioteche.it/index.php?xsl=839&s=2&v=9&c=5670&codice=IT-CA0118,9.197009799999933,39.5393544
IT-CA0120,"San Gavino Monreale - Biblioteca comunale","Di pubblica lettura","Enti locali",USS68,"Via Leonardo da Vinci","snc ",09037,"San Gavino Monreale",SU,"+39 070 9339071",,info@bibliotecadisangavino.net,www.bibliotecadisangavino.net,,affarigenerali.sangavino@pec.comunas.it,http://www.sardegnabiblioteche.it/index.php?xsl=839&s=2&v=9&c=5670&codice=IT-CA0120,8.7866037,39.5504509
IT-CA0121,"San Giovanni Suergiu - Biblioteca comunale    ","Di pubblica lettura","Enti locali",CAG5E," Via Mazzini"," ",09010,"San Giovanni Suergiu",SU,"+39 0781 6999344","+39 0781 6999313",bibliotecasgsuergiu@libero.it,,www.sbis.it/le-biblioteche/biblioteca-sgsuergiu.html,ufficio.protocollo@pec.comune.sangiovannisuergiu.ci.it,http://www.sardegnabiblioteche.it/index.php?xsl=839&s=2&v=9&c=5670&codice=IT-CA0121,8.520564199999967,39.11206749999999
IT-CA0123,"San Sperate - Biblioteca comunale","Di pubblica lettura","Enti locali",USS40,"Via XI Febbraio - Piazzale Parrocchia"," ",09026,"San Sperate",SU,"+39 070 9601873",,biblioteca@sansperate.net,,www.facebook.com/BiblioSanSperate/,protocollo@pec.comune.sansperate.ca.it,http://www.sardegnabiblioteche.it/index.php?xsl=839&s=2&v=9&c=5670&codice=IT-CA0123,9.00174160000006,39.3606211
IT-CA0124,"San Vito - Biblioteca comunale Grazia Deledda","Di pubblica lettura","Enti locali",CAG7V,"Via Aldo Moro",50,09040,"San Vito",SU,"+39 070 9929191","+39 070 9927971",bibliotecasvito@gmail.com,,,ufficio.protocollo@pec.comune.sanvito.ca.it,http://www.sardegnabiblioteche.it/index.php?xsl=839&s=2&v=9&c=5670&codice=IT-CA0124,9.5392382,39.4388536
IT-CA0125,"Sanluri - Biblioteca comunale","Di pubblica lettura","Enti locali",,"presso Polo culturale e dell\\\'Alta Formazione - edificio Ex Scolopi Parco S\\\'Arei"," ",09025,Sanluri,SU,"+39 070 9383400","+39 0709383226",biblioteca.comune.sanluri@gmail.com,,www.facebook.com/BibliotecaSanluri,protocollo@pec.comune.sanluri.su.it,http://www.sardegnabiblioteche.it/index.php?xsl=839&s=2&v=9&c=5670&codice=IT-CA0125," 8.901576999999975",39.5646188
IT-CA0126,"Sant\'Andrea Frius - Biblioteca comunale","Di pubblica lettura","Enti locali",CAG7F,"Via Garibaldi",26,09040,"Sant'Andrea Frius",SU,"+39 070 9803496","+39 070 9803537",bibliotecasantandreafrius@gmail.com,,,protocollo@pec.comune.santandreafrius.ca.it,http://www.sardegnabiblioteche.it/index.php?xsl=839&s=2&v=9&c=5670&codice=IT-CA0126,9.16924229999995,39.4780332
IT-CA0127,"Sant\'Anna Arresi - Biblioteca comunale ","Di pubblica lettura","Enti locali",CAG5A,"Via Giudice Mariano",s.n.,09010,"Sant'Anna Arresi",SU,"+39 0781 966042","+39 0781 966042",biblioteca@comune.santannaarresi.ca.it,,www.sbis.it/le-biblioteche/biblioteca-santanna-arresi.html,protocollo.santannaarresi@pec.it,http://www.sardegnabiblioteche.it/index.php?xsl=839&s=2&v=9&c=5670&codice=IT-CA0127,8.64695549999999,39.0029018
IT-CA0128,"Sant\'Antioco - Biblioteca comunale I Sufeti","Di pubblica lettura","Enti locali",CAG5N,"Piazza De Gasperi",11,09017,Sant'Antioco,SU,"+39 0781 83132","+39 0781 8030275",biblioteca.santantioco@sbis.it,,www.sbis.it/le-biblioteche/biblioteca-santantioco.html,protocollo@comune.santantioco.legalmail.it,http://www.sardegnabiblioteche.it/index.php?xsl=839&s=2&v=9&c=5670&codice=IT-CA0128," 8.45086200000003",39.069547
IT-CA0129,"Santadi - Biblioteca comunale   ","Di pubblica lettura","Enti locali",CAG5T,"Via Vittorio Veneto",8,09010,Santadi,SU,"+39 0781 955180","+39 0781 955180",biblioteca.santadi@sbis.it,,www.sbis.it/le-biblioteche/biblioteca-santadi.html,protocollo@pec.comunesantadi.it,http://www.sardegnabiblioteche.it/index.php?xsl=839&s=2&v=9&c=5670&codice=IT-CA0129,8.71731669999997,39.0910099
IT-CA0130,"Sardara - Biblioteca comunale","Di pubblica lettura","Enti locali",USS71,"Via Manzoni",7,09030,Sardara,SU,"+39 070 9387559","+39 070 9386111",bibliosardara@libero.it,,,affarigenerali@pec.comune.sardara.vs.it,http://www.sardegnabiblioteche.it/index.php?xsl=839&s=2&v=9&c=5670&codice=IT-CA0130,8.820683400000007,39.615507
IT-CA0132,"Sarroch - Biblioteca comunale","Di pubblica lettura","Enti locali",CAGSH,"Via Cagliari",59,09018,Sarroch,CA,"+39 070 900435",,marcella.usai@comune.sarroch.ca.it,,,protocollosarroch@pec.it,http://www.sardegnabiblioteche.it/index.php?xsl=839&s=2&v=9&c=5670&codice=IT-CA0132,9.010827000000063,39.065943
IT-CA0133,"Selargius - Biblioteca Comunale","Di pubblica lettura","Enti locali",CAGS8,"Via S.Olimpia ",31,09047,Selargius,CA,"+39 070 8592602/603/604",,info@biblioselargius.it,www.biblioselargius.it,,protocollo@pec.comune.selargius.ca.it,http://www.sardegnabiblioteche.it/index.php?xsl=839&s=2&v=9&c=5670&codice=IT-CA0133,9.170922799999971,39.2534386
IT-CA0134,"Selegas - Biblioteca comunale","Di pubblica lettura","Enti locali",USS13,"Via U. Daga",4,09040,Selegas,SU,"+39 070 985828","+39 070 985785",biblioteca.selegas@tiscali.it,,,protocollo@pec.comune.selegas.ca.it,http://www.sardegnabiblioteche.it/index.php?xsl=839&s=2&v=9&c=5670&codice=IT-CA0134,9.10452799999996,39.569988
IT-CA0136,"Serdiana - Biblioteca comunale Agostino Saba","Di pubblica lettura","Enti locali",USS15,"Piazza Gruxi \'e ferru",3,09040,Serdiana,SU,"+39 070 743745",,biblioteca@comune.serdiana.ca.it,,,comune.serdiana@pec.it,http://www.sardegnabiblioteche.it/index.php?xsl=839&s=2&v=9&c=5670&codice=IT-CA0136,9.156032900000014,39.3743527
IT-CA0137,"Settimo San Pietro - Biblioteca comunale","Di pubblica lettura","Enti locali",USS17,"Via Roma",65,09040,"Settimo San Pietro",CA,"+39 070 766366","+39 070 766366",biblioteca@comune.settimosanpietro.ca.it,,,protocollo@pec.comune.settimosanpietro.ca.it,http://www.sardegnabiblioteche.it/index.php?xsl=839&s=2&v=9&c=5670&codice=IT-CA0137,9.18569500000001,39.289253
IT-CA0138,"Siddi - Biblioteca comunale","Di pubblica lettura","Enti locali",,"Viale Europa",20,09020,Siddi,SU,"+39 070 9340233","+39 070 939116",bibliotecasiddi2010@tiscali.it,,,protocollo.siddi@servizipostacert.it,http://www.sardegnabiblioteche.it/index.php?xsl=839&s=2&v=9&c=5670&codice=IT-CA0138,8.889511999999968,39.6699879
IT-CA0139,"Siliqua - Biblioteca comunale","Di pubblica lettura","Enti locali",USS36,"Via Di Vittorio","16         ",09010,Siliqua,SU,"+39 0781 73423","+39 0781 7801225",biblioteca@comune.siliqua.ca.it,,,protocollo@pec.comune.siliqua.ca.it,http://www.sardegnabiblioteche.it/index.php?xsl=839&s=2&v=9&c=5670&codice=IT-CA0139,8.808349000000021,39.3020901
IT-CA0140,"Silius - Biblioteca comunale Egidio Porru","Di pubblica lettura","Enti locali",CAG7S,"Via Rinascita",42,09040,Silius,SU,"+39 070 959080","+39 070 959287",biblioteca.silius@tiscali.it,,,protocollo@pec.comune.silius.ca.it,http://www.sardegnabiblioteche.it/index.php?xsl=839&s=2&v=9&c=5670&codice=IT-CA0140,9.295337000000018,39.517335
IT-CA0141,"Siurgus Donigala - Biblioteca comunale Giuseppe Dessì","Di pubblica lettura","Enti locali",USS18,"Piazza 29 Luglio 1927","2    ",09040,"Siurgus Donigala",SU,"+39 070 989279","+39 070 989111",bibliosiurgus@tiscali.it,,,protocollo@pec.comune.siurgusdonigala.ca.it,http://www.sardegnabiblioteche.it/index.php?xsl=839&s=2&v=9&c=5670&codice=IT-CA0141,9.1851414,39.599715
IT-CA0142,"Suelli - Biblioteca comunale","Di pubblica lettura","Enti locali",USS20,"Via Gramsci",12/A,09040,Suelli,SU,"+39 070 988256","+39 070 988353",bibliotecasuelli@gmail.com,,,protocollo.suelli@legalmail.it,http://www.sardegnabiblioteche.it/index.php?xsl=839&s=2&v=9&c=5670&codice=IT-CA0142,9.153867699999978,39.5351812
IT-CA0143,"Teulada - Biblioteca comunale Grazia Deledda","Di pubblica lettura","Enti locali",CAG5U,"Piazza Parrocchia","  ",09019,Teulada,SU,"+39 070 9271230","+39 070 9271230",biblioteulada@tiscali.it,,www.sbis.it/le-biblioteche/biblioteca-teulada.html,protocollo@pec.comune.teulada.ca.it,http://www.sardegnabiblioteche.it/index.php?xsl=839&s=2&v=9&c=5670&codice=IT-CA0143,8.77461829999993,38.9680914
IT-CA0145,"Tratalias - Biblioteca comunale ","Di pubblica lettura","Enti locali",CAG5R,"Piazza Matteotti",19,09010,Tratalias,SU,"+39 0781 697023 int. 920","+39 0781 688283",biblioteca.tratalias@sbis.it,,www.sbis.it/le-biblioteche/biblioteca-tratalias.htm,protocollo@pec.comune.tratalias.ca.it,http://www.sardegnabiblioteche.it/index.php?xsl=839&s=2&v=9&c=5670&codice=IT-CA0145,8.57727019999993,39.1032573
IT-CA0146,"Tuili - Biblioteca comunale Zaccaria Tuveri","Di pubblica lettura","Enti locali",,"Via Campidano",7,09029,Tuili,SU,"+39 070 2359753",,biblioteca.tuili@tiscali.it,,,protocollo.tuili@pec.comunas.it,http://www.sardegnabiblioteche.it/index.php?xsl=839&s=2&v=9&c=5670&codice=IT-CA0146,8.960365599999932,39.7180186
IT-CA0147,"San Gavino Monreale - Biblioteca dell'Istituto di scienze religiose Monsignor Giuseppe Maria Pilo",Scolastica,"Istituti scolastici",USS72," Via Diana",1,09037,"San Gavino Monreale",SU,"+39 070 9339017","+39 070 9339017",bibliotecaisr@libero.it,,,,http://www.sardegnabiblioteche.it/index.php?xsl=839&s=2&v=9&c=5670&codice=IT-CA0147,8.792586700000015,39.5489034
IT-CA0148,"Villamar - Biblioteca comunale","Di pubblica lettura","Enti locali",,"Piazza Prazza De Corti",1,09020,Villamar,SU,"+39 070 93069318","+39 070 9306017",biblioteca.villamar@tiscali.it,,,segreteria.villamar@legalmail.it,http://www.sardegnabiblioteche.it/index.php?xsl=839&s=2&v=9&c=5670&codice=IT-CA0148,8.962007999999969,39.6178827
IT-CA0149,"Villanovaforru - Biblioteca comunale","Di pubblica lettura","Enti locali",,"Via Umberto I",6,09020,Villanovaforru,SU,"+39 070 9331012","+39 070 93451250",biblioteca@comune.villanovaforru.ca.it,,,protocollo.villanovaforru@pec.comunas.it,http://www.sardegnabiblioteche.it/index.php?xsl=839&s=2&v=9&c=5670&codice=IT-CA0149,8.868116200000031,39.6327504
IT-CA0150,"Villaputzu - Biblioteca comunale Efisio Melis","Di pubblica lettura","Enti locali",CAG7P,"Via Nazionale",166/A,09040,Villaputzu,SU,"+39 070 997287","+39 070 997075",biblioteca@comune.villaputzu.ca.it,,,protocollo@pec.comune.villaputzu.ca.it,http://www.sardegnabiblioteche.it/index.php?xsl=839&s=2&v=9&c=5670&codice=IT-CA0150,9.580976999999962,39.4371099
IT-CA0151,"Villasalto - Biblioteca comunale","Di pubblica lettura","Enti locali",CAGS7,"Corso Repubblica",50,09040,Villasalto,SU,"+39 070 9560007",,biblioteca.villasalto@gmail.com,,,protocollo.villasalto@pec.comunas.it,http://www.sardegnabiblioteche.it/index.php?xsl=839&s=2&v=9&c=5670&codice=IT-CA0151,9.390848000000005,39.493729
IT-CA0152,"Villasor - Biblioteca comunale","Di pubblica lettura","Enti locali",USS38,"Via Brundu (piazza del Convento)"," ",09034,Villasor,SU,"+39 070 2358492","+39 070 9647331",bcvillasor@hotmail.it,,,segreteriavillasor@legalmail.it,http://www.sardegnabiblioteche.it/index.php?xsl=839&s=2&v=9&c=5670&codice=IT-CA0152,8.941043000000036,39.378925
IT-CA0153,"Villaspeciosa - Biblioteca comunale","Di pubblica lettura","Enti locali",USS39,"Piazza Croce Santa",6,09010,Villaspeciosa,SU,"+39 070 9639177/9639039","+39 070 9639540",biblioteca@comune.villaspeciosa.ca.it,,,comune.villaspeciosa@legalmail.it,http://www.sardegnabiblioteche.it/index.php?xsl=839&s=2&v=9&c=5670&codice=IT-CA0153,8.927304100000015,39.3129977
IT-CA0155,"Assemini - Biblioteca comunale","Di pubblica lettura","Enti locali",USS32,"Via Cagliari",16,09032,Assemini,CA,"+39 070 949400","+39 070 949407",biblioteca@comune.assemini.ca.it,,,protocollo@pec.comune.assemini.ca.it,http://www.sardegnabiblioteche.it/index.php?xsl=839&s=2&v=9&c=5670&codice=IT-CA0155,9.004761099999996,39.2875346
IT-CA0156,"Cagliari - Biblioteca Metropolitana Emilio Lussu","Di pubblica lettura","Enti locali",CAGPR,"Parco di Monte Claro, Via Cadello",9/b,09121,Cagliari,CA,"+39 070 4092901","+39 070 4092902",biblioteca@cittametropolitanacagliari.it,"http://bibliotecamonteclaro.it ",,protocollo@pec.cittametropolitanacagliari.it,http://www.sardegnabiblioteche.it/index.php?xsl=839&s=2&v=9&c=5670&codice=IT-CA0156,9.116652499999987,39.2382239
IT-CA0159,"Cagliari - Biblioteca regionale",Speciale,"Regione ed enti regionali",CAGSA,"Viale Trieste","137 ",09123,Cagliari,CA,"+39 070 6064574","+39 070 6064590","pi.biblioteca.regionale@regione.sardegna.it ",,www.sardegnabiblioteche.it/attivita/bibliotecaregionale/,,http://www.sardegnabiblioteche.it/index.php?xsl=839&s=2&v=9&c=5670&codice=IT-CA0159,9.102830100000006,39.2214026
IT-CA0163,"Serramanna - Biblioteca comunale Giovanni Solinas","Di pubblica lettura","Enti locali",USS42,"Via Di Vittorio ",31A,09038,Serramanna,SU,"+39 070 9138834","+39 070 9138834","biblioteca@comune.serramanna.ca.it ",,,protocollo@pec.comune.serramanna.ca.it,http://www.sardegnabiblioteche.it/index.php?xsl=839&s=2&v=9&c=5670&codice=IT-CA0163,8.925872499999969,39.4167807
IT-CA0164,"Sestu - Biblioteca comunale Ranieri Ugo","Di pubblica lettura","Enti locali",CAGSE,"Via Roma",35,09028,Sestu,CA,"+39 070 260551/262291","+39 070 262291",biblioteca@comune.sestu.ca.it,,,protocollo.sestu@pec.it,http://www.sardegnabiblioteche.it/index.php?xsl=839&s=2&v=9&c=5670&codice=IT-CA0164,9.091517999999951,39.3023
IT-CA0165,"Sinnai - Biblioteca comunale","Di pubblica lettura","Enti locali",,"Piazza Municipio","2 ",09048,Sinnai,CA,"+39 070 782241","+39 070 7690410",biblioteca@comune.sinnai.ca.it,,,protocollo@pec.comune.sinnai.ca.it,http://www.sardegnabiblioteche.it/index.php?xsl=839&s=2&v=9&c=5670&codice=IT-CA0165,9.202551099999937,39.3013468
IT-CA0166,"Villacidro - Biblioteca comunale Antonio Gramsci","Di pubblica lettura","Enti locali",USS73,"Via Regione Sarda",65,09039,Villacidro,SU,"+39 070 9316551",,bibliovl@tiscali.it,,,protocollo.villacidro@pec.it,http://www.sardegnabiblioteche.it/index.php?xsl=839&s=2&v=9&c=5670&codice=IT-CA0166,8.744691999999986,39.457407
IT-CA0167,"Università degli studi di Cagliari - Biblioteca del Distretto delle Scienze sociali, economiche e giuridiche - Sezione Scienze politiche ","Di supporto alla ricerca e alla didattica nell’Università",Università,CAGFP,"Viale S. Ignazio",80,09123,Cagliari,CA,"+39 070 6753708","+39 070 6753710",biblioteca.sp@unica.it,,www.unica.it/unica/it/sba_scienze_politiche.page,,http://www.sardegnabiblioteche.it/index.php?xsl=839&s=2&v=9&c=5670&codice=IT-CA0167,9.110933,39.223446
IT-CA0190,"Senorbì - Biblioteca comunale ","Di pubblica lettura","Enti locali",USS14,"Viale Piemonte",snc,09040,Senorbì,SU,"+39 070 980121 (comune)","+39 070 98012345 (comune)",azanetti@comune.senorbi.ca.it,,,protocollo@pec.comune.senorbi.ca.it,http://www.sardegnabiblioteche.it/index.php?xsl=839&s=2&v=9&c=5670&codice=IT-CA0190,9.131861999999956,39.53305
IT-CA0191,"Gesico - Biblioteca comunale","Di pubblica lettura","Enti locali",USS05,"Via Vittorio Emanuele III,",5,09040,Gesico,SU,"+39 070 9877013","+39 070 987239",bibliotecario@gmail.com,,,protocollo.gesico@pec.comunas.it,http://www.sardegnabiblioteche.it/index.php?xsl=839&s=2&v=9&c=5670&codice=IT-CA0191,9.10694639999997,39.6151529
IT-CA0192,"Vallermosa - Biblioteca comunale","Di pubblica lettura","Enti locali",USS37,"Via Salvo d\'Acquisto"," ",09010,Vallermosa,SU,"+39 0781 1861171","+39 0781 79293",bibliovallermosa@virgilio.it,,,protocollo.vallermosa@servizipostacert.it,http://www.sardegnabiblioteche.it/index.php?xsl=839&s=2&v=9&c=5670&codice=IT-CA0192,8.794723200000021,39.3638937
IT-CA0193,"Ortacesus - Biblioteca comunale  ","Di pubblica lettura","Enti locali",,"Via Marco Polo",8,09040,Ortacesus,SU,"+39 070 9804011",,,,,protocollo.ortacesus@servizipostacert.it,http://www.sardegnabiblioteche.it/index.php?xsl=839&s=2&v=9&c=5670&codice=IT-CA0193,9.084990800000014,39.5382217
IT-CA0194,"Cagliari - Biblioteca Universitaria ",Generale,"Ministero per i beni e le attività culturali",CAGUC,"Via Università",32,09124,Cagliari,CA,"+39 070 661021","+39 070 652672",bu-ca@beniculturali.it,,www.buca.beniculturali.it,mbac-bu-ca@mailcert.beniculturali.it,http://www.sardegnabiblioteche.it/index.php?xsl=839&s=2&v=9&c=5670&codice=IT-CA0194,9.115119600000071,39.2172325
IT-CA0195,"Selargius - Biblioteca dell\'Istituto nazionale di astrofisica - INAF Osservatorio astronomico di Cagliari",Speciale,Ministeri,CAGOA,"Via della Scienza","5 ",09047,Selargius,CA,"+39 070 71180221","+39 070 71180222",denotti@oa-cagliari.inaf.it,,www.oa-cagliari.inaf.it/search.php?search_keywords=biblioteca,inafoacagliari@pcert.postecert.it,http://www.sardegnabiblioteche.it/index.php?xsl=839&s=2&v=9&c=5670&codice=IT-CA0195,9.131433799999968,39.2819578
IT-CA0196,"Assemini - Biblioteca-Mediateca dell\'Archivio pubblico arti musica e spettacolo (APAMS)",Speciale,"Enti privati e associazioni",,"Via E. Porrino",5,09032,Assemini,CA,"+39 070 944908","+39 070 944908",arkamax@tiscali.it,,,,http://www.sardegnabiblioteche.it/index.php?xsl=839&s=2&v=9&c=5670&codice=IT-CA0196,8.994694200000026,39.2940805
IT-CA0197,"Cagliari - Biblioteca della CISL",Speciale,"Enti privati e associazioni",,"Via Ancona",11,09125,Cagliari,CA,"+39 070 3490714","+39 070 304873",,,,,http://www.sardegnabiblioteche.it/index.php?xsl=839&s=2&v=9&c=5670&codice=IT-CA0197,9.126987900000017,39.2070745
IT-CA0198,"Barrali - Biblioteca comunale","Di pubblica lettura","Enti locali",USS02,"Via Marconi",48,09040,Barrali,SU,"+39 070 9802522",,bibliotecabarrali@tiscali.it,,,protocollo.barrali@pec.comunas.it,http://www.sardegnabiblioteche.it/index.php?xsl=839&s=2&v=9&c=5670&codice=IT-CA0198,9.101315,39.474333
IT-CA0199,"Burcei - Biblioteca comunale","Di pubblica lettura","Enti locali",,"Via Municipio",6,09040,Burcei,SU,"+39 070 739194","+39 070 739194",bibliotecaburcei@tiscali.it,,,protocollo.burcei@pec.it,http://www.sardegnabiblioteche.it/index.php?xsl=839&s=2&v=9&c=5670&codice=IT-CA0199,9.36006599999996,39.343914
IT-CA0200,"Capoterra - Biblioteca comunale Sergio Atzeni","Di pubblica lettura","Enti locali",CAGCT,"Vico I° del Popolo","2            ",09012,Capoterra,CA,"+39 070 720308",,bibliotecacapoterra@tiscali.it,,,comune.capoterra@legalmail.it,http://www.sardegnabiblioteche.it/index.php?xsl=839&s=2&v=9&c=5670&codice=IT-CA0200,8.96818200000007,39.174725
IT-CA0201,"Muravera - Biblioteca comunale","Di pubblica lettura","Enti locali",CAG7M,"Via Marconi","71                ",09043,Muravera,SU,"+39 070 9932033","+39 070 9932033",biblio.muravera@tiscali.it,,www.comune.muravera.ca.it/2008/12/biblioteca,protocollocomunemuravera@legalmail.it,http://www.sardegnabiblioteche.it/index.php?xsl=839&s=2&v=9&c=5670&codice=IT-CA0201,9.578589999999963,39.4191923
IT-CA0202,"Dolianova - Biblioteca comunale","Di pubblica lettura","Enti locali",USS03,"Piazza Europa","                   ",09041,Dolianova,SU,"+39 070 743413",,biblioteca@comune.dolianova.ca.it,,,comunedidolianova@legalmail.it,http://www.sardegnabiblioteche.it/index.php?xsl=839&s=2&v=9&c=5670&codice=IT-CA0202,9.176655799999935,39.3766281
IT-CA0203,"Donori - Biblioteca comunale Universo","Di pubblica lettura","Enti locali",USS04,"Via Einaudi",6,09040,Donorì,SU,"+39 070 981376","+39 070 981542 ",biblioteca@comune.donori.ca.it,,,protocollodonori@pec.it,http://www.sardegnabiblioteche.it/index.php?xsl=839&s=2&v=9&c=5670&codice=IT-CA0203,9.12790300000006,39.432894
IT-CA0204,"Las Plassas - Biblioteca comunale","Di pubblica lettura","Enti locali",,"Via Manzoni",3,09020,"Las Plassas",SU,"+39 070 9364685","+39 070 9364606",biblioteca.lasplassas@tiscali.it,,,protocollo.lasplassas@pec.comunas.it,http://www.sardegnabiblioteche.it/index.php?xsl=839&s=2&v=9&c=5670&codice=IT-CA0204,8.98415650000004,39.6814154
IT-CA0205,"Masainas - Biblioteca comunale ","Di pubblica lettura","Enti locali",CAGM5,"Via  Roma",76,09010,Masainas,SU,"+39 0781 978002","+39 0781 9611222",biblioteca.masainas@sbis.it,,www.sbis.it/le-biblioteche/masainas.html,protocollo.masainas@pec.comunas.it,http://www.sardegnabiblioteche.it/index.php?xsl=839&s=2&v=9&c=5670&codice=IT-CA0205,8.629165000000057,39.0515284
IT-CA0206,"Pauli Arbarei - Biblioteca comunale","Di pubblica lettura","Enti locali",,"Via Cagliari","9     ",09020,"Pauli Arbarei",SU,"+39 070 9341040",,bibliopauli@tiscali.it,,,comune.pauliarbarei@pec.it,http://www.sardegnabiblioteche.it/index.php?xsl=839&s=2&v=9&c=5670&codice=IT-CA0206,8.921142000000032,39.66076
IT-CA0207,"Quartucciu - Biblioteca comunale Francesca Sanna Sulis","Di pubblica lettura","Enti locali",CAG8Q,"Via Nazionale",119,09044,Quartucciu,CA,"+39 070 85954255","+39 070 85954247",bibliotecaquartucciu@tiscali.it,,,protocollo.quartucciu@legalmail.it,http://www.sardegnabiblioteche.it/index.php?xsl=839&s=2&v=9&c=5670&codice=IT-CA0207,9.179462999999942,39.253768
IT-CA0208,"San Nicolò Gerrei - Biblioteca comunale ","Di pubblica lettura","Enti locali",CAG7N,"Via Umberto I",39,09040,"San Nicolò Gerrei",SU,"+39 070 950096","+39 070 9509128",biblioteca@comune.sannicologerrei.ca.it,,,sngerreiufficioprotocollo@pec.it,http://www.sardegnabiblioteche.it/index.php?xsl=839&s=2&v=9&c=5670&codice=IT-CA0208,9.304140999999959,39.496662
IT-CA0209,"Segariu - Biblioteca comunale","Di pubblica lettura","Enti locali",,"Via Dante",43,09040,Segariu,SU,"+39 070 9302900",,bibliotecasegariu@tiscali.it,,,protocollo@pec.comune.segariu.ca.it,http://www.sardegnabiblioteche.it/index.php?xsl=839&s=2&v=9&c=5670&codice=IT-CA0209,8.98067930000002,39.5644995
IT-CA0210,"Serrenti - Biblioteca comunale","Di pubblica lettura","Enti locali",USS16,"Via Gavino Fara (Centro Polivalente)"," ",09027,Serrenti,SU,"+39 070 9159155","+39 070 9159791",biblio.serrenti@tiscali.it,,,protocollo.serrenti@pec.comunas.it,http://www.sardegnabiblioteche.it/index.php?xsl=839&s=2&v=9&c=5670&codice=IT-CA0210,8.971468800000025,39.494833
IT-CA0211,"Ussana - Biblioteca comunale","Di pubblica lettura","Enti locali",USS01," Via Chiesa ",5,09020,Ussana,SU,"+39 070 91894336","+39 070 91894325",chiedialbibliotecario@gmail.com,,,protocollo@pec.comune.ussana.ca.it,http://www.sardegnabiblioteche.it/index.php?xsl=839&s=2&v=9&c=5670&codice=IT-CA0211,9.077752700000019,39.39277920000001
IT-CA0212,"Villasimius - Biblioteca comunale","Di pubblica lettura","Enti locali",,"Piazza Giovanni XXIII"," 1",09049,Villasimius,SU,"+39 070 7930232",,"biblioteca@comune.villasimius.ca.it ",,,protocollo.comunevillasimius@legalmail.it,http://www.sardegnabiblioteche.it/index.php?xsl=839&s=2&v=9&c=5670&codice=IT-CA0212,9.519948999999997,39.142402
IT-CA0213,"Cagliari - CeDiDoc - Centro di documentazione e di educazione Cooperativa Passaparola ",Speciale,"Enti privati e associazioni",CAGRO,"Via Brianza Centro di Quartiere “StraKrash” (ex scuola materna di Bingia Matta)",10,09128,Cagliari,CA,"+39 070 9190930 - Centro di quartiere: 3473687327","+39 070 4520047","info@cooperativapassaparola.it ",,,coop.passaparola@pec.it,http://www.sardegnabiblioteche.it/index.php?xsl=839&s=2&v=9&c=5670&codice=IT-CA0213,9.106572,39.239874
IT-CA0214,"Cagliari - Biblioteca Centro di documentazione e studi delle donne",Speciale,"Enti privati e associazioni",CAGDN,"Via Falzarego ",35,09123,Cagliari,CA,"+39 070 666882","+39 070 666882",tarantolacoopera@tiscali.it,,,cooplatarantola@pec.it,http://www.sardegnabiblioteche.it/index.php?xsl=839&s=2&v=9&c=5670&codice=IT-CA0214,9.117529999999988,39.2151
IT-CA0215,"Villasor - Biblioteca del Centro culturale Fueddu e Gestu",Speciale,"Enti privati e associazioni",,"Via S. Sperate"," ",09034,Villasor,SU,"+39 070 9648584","+39 070 9648871",fuedduegestu@virgilio.it,,,,http://www.sardegnabiblioteche.it/index.php?xsl=839&s=2&v=9&c=5670&codice=IT-CA0215,8.948299799999972,39.3803298
IT-CA0218,"Dolianova - Biblioteca del Circolo Dolia",Speciale,"Enti privati e associazioni",,"Corso Repubblica",58,09041,Dolianova,SU,"+39 070 743630",,,,,,http://www.sardegnabiblioteche.it/index.php?xsl=839&s=2&v=9&c=5670&codice=IT-CA0218,9.17591200000004,39.37766999999999
IT-CA0219,"Guasila - Biblioteca dell'Associazione Culturale Arkiviu Bibrioteka Tommasu Serra",Speciale,"Enti privati e associazioni",CAGAK,"Via Mons. Melas",24,09040,Guasila,SU,"+39 349 6419847",,costantino.cavalleri@tiscali.it,,,,http://www.sardegnabiblioteche.it/index.php?xsl=839&s=2&v=9&c=5670&codice=IT-CA0219,9.046802899999989,39.5621414
IT-CA0220,"Guspini - Biblioteca Filodrammatica guspinese",Speciale,"Enti privati e associazioni",,"Via Bonomi",7,09036,Guspini,SU,"+39 3291570462","+39 070 972674",filoguspinese@gmail.com,,,,http://www.sardegnabiblioteche.it/index.php?xsl=839&s=2&v=9&c=5670&codice=IT-CA0220,8.627720700000054,39.5409852
IT-CA0232,"Università degli studi di Cagliari - Biblioteca del Distretto tecnologico - Sezione Matematica e Informatica ","Di supporto alla ricerca e alla didattica nell’Università",Università,CAGMI,"Via Ospedale",72,09100,Cagliari,CA,"+39 070 6758513",,bibliomat@unica.it,,www.unica.it/unica/it/sba_tec_mi.page,,http://www.sardegnabiblioteche.it/index.php?xsl=839&s=2&v=9&c=5670&codice=IT-CA0232,9.114043400000014,39.2224115
IT-CA0236,"Cagliari - Biblioteca dell'Associazione culturale italo-tedesca (ACIT)",Speciale,"Enti privati e associazioni",,"Via Palomba",64,09129,Cagliari,CA,"+39 070 42965",,acitcagliari@tiscali.it,,,,http://www.sardegnabiblioteche.it/index.php?xsl=839&s=2&v=9&c=5670&codice=IT-CA0236,9.128485299999966,39.2176882
IT-CA0237,"Villanovafranca - Biblioteca comunale Vincenzo Porru","Di pubblica lettura","Enti locali",,"Piazza Risorgimento",17,09020,Villanovafranca,SU,"+39 070 9371046","+39 070 9367253",biblio.vfranca@tiscali.it,,,protocollo@pec.comune.villanovafranca.ca.it,http://www.sardegnabiblioteche.it/index.php?xsl=839&s=2&v=9&c=5670&codice=IT-CA0237,9.001743000000033,39.645252
IT-CA0239,"Monserrato - Monserratoteca","Di pubblica lettura","Enti locali",USS44,"Via Porto Cervo"," ",09042,Monserrato,CA,"+39 070 5792706/5792707","+39 070 5792708",info@monserratoteca.it,http://www.monserratoteca.it,,protocollo@pec.comune.monserrato.ca.it,http://www.sardegnabiblioteche.it/index.php?xsl=839&s=2&v=9&c=5670&codice=IT-CA0239,9.134798300000057,39.2573341
IT-CA0240,"Cagliari - Biblioteca comunale di Pirri","Di pubblica lettura","Enti locali",CAGCP,"Via Santa Maria Goretti",63,09134,Cagliari,CA,"+39 070 6773815/16",,bibliotecapirri@comune.cagliari.it,,,protocollogenerale@comune.cagliari.legalmail.it,http://www.sardegnabiblioteche.it/index.php?xsl=839&s=2&v=9&c=5670&codice=IT-CA0240,9.12762459999999,39.2525097
IT-CA0241,"Calasetta - Biblioteca comunale","Di pubblica lettura","Enti locali",CAGF5,"Lungomare C. Colombo ",1,09011,Calasetta,SU,"+39 0781 88378","+39 0781 88378",bib.calasetta@tiscali.it,,www.sbis.it/le-biblioteche/calasetta.html,protocollo@pcert.comune.calasetta.ci.it,http://www.sardegnabiblioteche.it/index.php?xsl=839&s=2&v=9&c=5670&codice=IT-CA0241," 8.368676400000026",39.1122728
IT-CA0242,"Domus de Maria - Biblioteca comunale  ","Di pubblica lettura","Enti locali",,"Via Isonzo",9,09010,"Domus de Maria",SU,"+39 070 9236068","+39 070 9235014",biblioteca.domus@tiscali.it,,www.domusbibliotecamultimediale.net/Biblioteca.htm,domus.protocollo@globalcert.it,http://www.sardegnabiblioteche.it/index.php?xsl=839&s=2&v=9&c=5670&codice=IT-CA0242,8.861872100000028,38.94340649999999
IT-CA0243,"Nuraminis - Biblioteca comunale","Di pubblica lettura","Enti locali",USS09,"Piazza Chiesa",2,09024,Nuraminis,SU,"+39 070 7761168",,biblioteca.nuraminis.ca@gmail.com,,,protocollo.nuraminis@legalmail.it,http://www.sardegnabiblioteche.it/index.php?xsl=839&s=2&v=9&c=5670&codice=IT-CA0243,9.01235799999995,39.4434619
IT-CA0244,"Pula - Biblioteca comunale","Di pubblica lettura","Enti locali",CAGPU,"P.zza del Popolo","  ",09010,Pula,CA,"+39 3400727469","+39 0709253346",bibliotecacomunaledipula@gmail.com,,,segreteria@pec.comune.pula.ca.it,http://www.sardegnabiblioteche.it/index.php?xsl=839&s=2&v=9&c=5670&codice=IT-CA0244,9.00160500000004,39.01278689999999
IT-CA0245,"Samassi - Biblioteca comunale","Di pubblica lettura","Enti locali",USS11,"Via Vittorio Veneto",40,09030,Samassi,SU,"+39 070 9382006","+39 070 0993191",biblioteca.comunale@comune.samassi.ca.it,,,protocollo@pec.comune.samassi.ca.it,http://www.sardegnabiblioteche.it/index.php?xsl=839&s=2&v=9&c=5670&codice=IT-CA0245,8.907338299999992,39.4802042
IT-CA0246,"Setzu - Biblioteca comunale Marcello Marchesi","Di pubblica lettura","Enti locali",,"Via Antoni Tomasu     ","snc ",09029,Setzu,SU,"+39 070 9364665",,biblioteca.setzu@tiscali.it,,,protocollo@pec.comune.setzu.vs.it,http://www.sardegnabiblioteche.it/index.php?xsl=839&s=2&v=9&c=5670&codice=IT-CA0246," 8.939968",39.721116
IT-CA0247,"Soleminis - Biblioteca comunale","Di pubblica lettura","Enti locali",USS19,"Via Sirios   ","         ",09040,Soleminis,SU,"+39 070 749506",,biblioteca.soleminis@gmail.com,,,protocollo.soleminis@pec.comunas.it,http://www.sardegnabiblioteche.it/index.php?xsl=839&s=2&v=9&c=5670&codice=IT-CA0247,9.18428700000004,39.348692
IT-CA0248,"Turri - Biblioteca comunale Casa Ortensia","Di pubblica lettura","Enti locali",,"Piazza Martiri"," 22",09020,Turri,SU,"+39 0783 95021",,bibliotecaturri@tiscali.it,,,turri.unione@legalmail.it,http://www.sardegnabiblioteche.it/index.php?xsl=839&s=2&v=9&c=5670&codice=IT-CA0248,8.917726700000003,39.7050199
IT-CA0249,"Uta - Biblioteca comunale","Di pubblica lettura","Enti locali",CAGBU,"Via Argiolas Manna"," ",09010,Uta,CA,"+39 070 9661043",,pioggiadilibri@tiscali.it,,,comune.uta@legalmail.it,http://www.sardegnabiblioteche.it/index.php?xsl=839&s=2&v=9&c=5670&codice=IT-CA0249,8.958573699999988,39.2918843
IT-CA0250,"Villa San Pietro - Biblioteca comunale","Di pubblica lettura","Enti locali",CAGSP,"Via Roma       ","9               ",09010,"Villa San Pietro",CA,"+39 070 907076","+39 070 907076",biblioteca.vsp@tiscali.it,,www.comune.villasanpietro.ca.it/villasanpietro/zf/index.php/servizi-aggiuntivi/index/index/idtesto/63,protocollo@comunevillasanpietro.postecert.it,http://www.sardegnabiblioteche.it/index.php?xsl=839&s=2&v=9&c=5670&codice=IT-CA0250,8.995052699999974,39.0340285
IT-CA0259,"Università degli studi di Cagliari - Biblioteca del Distretto delle Scienze umane - Sezione Cittadella dei musei  ","Di supporto alla ricerca e alla didattica nell’Università",Università,CAGAA,"Piazza arsenale",1,09124,Cagliari,CA,"+39 070 6757619","+39 070 6757619",cittadella.su@unica.it,,www.unica.it/unica/it/sba_scium_cittadella_musei.page,,http://www.sardegnabiblioteche.it/index.php?xsl=839&s=2&v=9&c=5670&codice=IT-CA0259,9.116585200000031,39.2217709
IT-CA0260,"Cagliari - Biblioteca Scienze Sociali della Città Metropolitana di Cagliari","Di pubblica lettura","Enti locali",CAGOC,"Via Cadello",9/B,09121,Cagliari,CA,"+39 070 4092575",,biblioteca.sociale@cittametropolitanacagliari.it,www.bibliotecamonteclaro.it,,protocollo@pec.cittametropolitanacagliari.it,http://www.sardegnabiblioteche.it/index.php?xsl=839&s=2&v=9&c=5670&codice=IT-CA0260,9.116652499999987,39.2382239
IT-CA0263,"Cagliari - Biblioteca dell'Istituto sardo per la storia della Resistenza e dell'autonomia",Speciale,"Enti privati e associazioni",CAGSR,"Via Lanusei",14,09125,Cagliari,CA,"+39 070 658823","+39 070 662250",issraca@tiscali.it,,,,http://www.sardegnabiblioteche.it/index.php?xsl=839&s=2&v=9&c=5670&codice=IT-CA0263,9.11805819999995,39.2147515
IT-CA0264,"Cagliari. Pirri - Biblioteca dell\'Istituto organizzazione gestione aziendale. IS.O.GE.A. ",Speciale,"Enti privati e associazioni",,"Via Duca di Genova",70/72,09134,Cagliari,CA,"+39 070 565486","+39 070 568056",amministrazione@isogea.com,,,info@pec.isogea.com,http://www.sardegnabiblioteche.it/index.php?xsl=839&s=2&v=9&c=5670&codice=IT-CA0264,9.131886000000009,39.2522188
IT-CA0265,"Cagliari - Biblioteca dell\'Istituto sardo organizzazione lavoro artigianato. I.S.O.L.A.",Speciale,"Regione ed enti regionali",," Via Bacaredda",184,09026,Cagliari,CA,"+39 070 400707","+39 070 400359",sardegna@isolartigianato.it,,,,http://www.sardegnabiblioteche.it/index.php?xsl=839&s=2&v=9&c=5670&codice=IT-CA0265,9.119719900000064,39.2284411
IT-CA0268,"Cagliari - Biblioteca del Servizio beni librari della Regione autonoma della Sardegna",Speciale,"Regione ed enti regionali",CAGBL,"Via Trieste",137,09123,Cagliari,CA,"+39 070 6064542","+39 070 6064590",pi.biblioteca.regionale@regione.sardegna.it,,,pi.benilibrari@pec.regione.sardegna.it,http://www.sardegnabiblioteche.it/index.php?xsl=839&s=2&v=9&c=5670&codice=IT-CA0268,9.102830100000006,39.2214026
IT-CA0293,"Guspini - Biblioteca del gruppo archeologico NEAPOLIS",Speciale,"Enti privati e associazioni",,"Via Matteotti",112,09036,Guspini,SU,,,gruppoarcheologiconeapolis@gmail.com,,,,http://www.sardegnabiblioteche.it/index.php?xsl=839&s=2&v=9&c=5670&codice=IT-CA0293,8.631339199999957,39.5383529
IT-CA0294,"Guspini - Biblioteca specializzata di informatica",Speciale,"Enti privati e associazioni",,"Via Leonardo da Vinci",13,09036,Guspini,SU,"+39 070 974647","+39 070 972637",arciguspini@tiscali.it,,,,http://www.sardegnabiblioteche.it/index.php?xsl=839&s=2&v=9&c=5670&codice=IT-CA0294,8.625700000000052,39.54344
IT-CA0295,"Cagliari - Biblioteca dell\'Associazione Italia-Inghilterra The Myriam Cabiddu library",Speciale,"Enti privati e associazioni",,"Via Machiavelli",97,09100,Cagliari,CA,"+39 3287299397 ","+39 070 402966",info@italiainghilterra.org,,,,http://www.sardegnabiblioteche.it/index.php?xsl=839&s=2&v=9&c=5670&codice=IT-CA0295,9.13023099999998,39.2277143
IT-CA0296,"Cagliari - Biblioteca della Fondazione Giuseppe Siotto",Speciale,Fondazioni,CAGSI,"Via dei Genovesi",114,09124,Cagliari,CA,"+39 070 682384","+39 070 682280",info@fondazionegiuseppesiotto.org,,,legalmail@pec.fondazionegiuseppesiotto.org,http://www.sardegnabiblioteche.it/index.php?xsl=839&s=2&v=9&c=5670&codice=IT-CA0296,9.115666499999975,39.2197191
IT-CA0297,"Sanluri - Biblioteca di Nostra Signora delle Grazie",Speciale,"Enti ecclesiastici",,"Via C. Felice",237,09025,Sanluri,SU,"+39 070 9370270",,,,,,http://www.sardegnabiblioteche.it/index.php?xsl=839&s=2&v=9&c=5670&codice=IT-CA0297,8.89873799999998,39.5633531
IT-CA0298,"Università degli studi di Cagliari - Biblioteca del Distretto biomedico scientifico - Sezione Beniamino Orrù","Di supporto alla ricerca e alla didattica nell’Università",Università,CAGAB,"Cittadella universitaria di Monserrato"," ",09042,Monserrato,CA,"+39 070 6754290/6754551",,"biblio.bs@unica.it ",,www.unica.it/unica/it/sba_bs_ab.page,,http://www.sardegnabiblioteche.it/index.php?xsl=839&s=2&v=9&c=5670&codice=IT-CA0298,9.12350850000007,39.2698221
IT-CA0299,"Università degli studi di Cagliari - Biblioteca del Distretto delle Scienze sociali, economiche e giuridiche - Sezione Centro interdipartimentale di documentazione europea","Di supporto alla ricerca e alla didattica nell’Università",Università,CAGDE,"Via S. Ignazio ",13,09123,Cagliari,CA,"+39 070 6753500","+39 070 6753390",cedoeu@unica.it,,www.unica.it/unica/it/sba_cide.page,,http://www.sardegnabiblioteche.it/index.php?xsl=839&s=2&v=9&c=5670&codice=IT-CA0299,9.172821999999996,39.25507
IT-CA0300,"Università degli studi di Cagliari - Biblioteca del Distretto delle Scienze umane - Sezione Giordano Bruno ","Di supporto alla ricerca e alla didattica nell’Università",Università,CAGDF,"Via Is Mirrionis, 1 - Loc. Sa Duchessa","  ",09123,Cagliari,CA,,,gbruno.su@unica.it,,www.unica.it/unica/it/sba_scium_giordano_bruno.page,,http://www.sardegnabiblioteche.it/index.php?xsl=839&s=2&v=9&c=5670&codice=IT-CA0300,9.110966599999983,39.2292586
IT-CA0306,"Sanluri - Biblioteca del Convento dei Padri Cappuccini",Speciale,"Enti ecclesiastici",," Via Cappuccini"," 6",09025,Sanluri,SU,"+39 070 9307107",,,,,,http://www.sardegnabiblioteche.it/index.php?xsl=839&s=2&v=9&c=5670&codice=IT-CA0306,8.897963699999991,39.5650198
IT-CA0311,"Cagliari - Biblioteca della Soprintendenza Archeologia, belle arti e paesaggio per la Città metropolitana di Cagliari e le province di Oristano e Sud Sardegna. Archeologia ",Speciale,"Ministero per i beni e le attività culturali",CAGAC,"Piazza Indipendenza",7,09124,Cagliari,CA,"+39 070 60518236","+39 070 658871",mariagrazia.mundula@beniculturali.it,,www.sabapca.beniculturali.it/it/250/biblioteca,mbac-sabap-ca@mailcert.beniculturali.it,http://www.sardegnabiblioteche.it/index.php?xsl=839&s=2&v=9&c=5670&codice=IT-CA0311,9.116849600000023,39.2208816
IT-CA0312,"Cagliari - Biblioteca Ragazzi della Città Metropolitana di Cagliari","Di pubblica lettura","Enti locali",CAGCS,"Via Cadello",9/b,09121,Cagliari,CA,"+39 070 4092576",,bibliotecaragazzi@cittametropolitanacagliari.it," http://bibliotecamonteclaro.it",,protocollo@pec.cittametropolitanacagliari.it,http://www.sardegnabiblioteche.it/index.php?xsl=839&s=2&v=9&c=5670&codice=IT-CA0312,9.116652499999987,39.2382239
IT-CA0313,"Cagliari - Biblioteca del Convitto nazionale statale Vittorio Emanuele II",Scolastica,"Istituti scolastici",CAGBC,"Via G. Manno",14,09124,Cagliari,CA,"+39 070 662691","+39 070 652346",cavc010001@istruzione.it,,,"cavc010001@pec.istruzione.it ",http://www.sardegnabiblioteche.it/index.php?xsl=839&s=2&v=9&c=5670&codice=IT-CA0313,9.115524499999992,39.2158246
IT-CA0314,"Elmas - Biblioteca dell\'Istituto Tecnico Agrario Duca degli Abruzzi",Scolastica,"Istituti scolastici",,"Via Acquedotto Romano, Zona industriale Est"," ",09030,Elmas,CA,"+39 070 213085/217071","+39 070 217072",cais01400p@istruzione.it,,,cais01400p@pec.istruzione.it,http://www.sardegnabiblioteche.it/index.php?xsl=839&s=2&v=9&c=5670&codice=IT-CA0314,9.066701800000033,39.2670205
IT-CA0317,"Cagliari - Biblioteca del Centro Servizi Culturali della Società Umanitaria - Cineteca sarda",Speciale,"Enti privati e associazioni",CAGSU,"Viale Trieste",118,09123,Cagliari,CA,"+39 070 278630",,cinetecasarda@gmail.com,,,Societa.Umanitaria.C.S.C.Cagliari@pec.umanitaria.it,http://www.sardegnabiblioteche.it/index.php?xsl=839&s=2&v=9&c=5670&codice=IT-CA0317,9.102954700000055,39.2207104
IT-CA0318,"Cagliari - Biblioteca Sardegna Ricerche  ",Speciale,"Regione ed enti regionali",CAGPS,"c/o Sa Manifattura Viale Regina Margherita"," 33",09124,Cagliari,CA,"+39 070 92432202","+39 070 92432254",biblioteca@sardegnaricerche.it,,www.sardegnaricerche.it/biblioteca,protocollo@cert.sardegnaricerche.it,http://www.sardegnabiblioteche.it/index.php?xsl=839&s=2&v=9&c=5670&codice=IT-CA0318,9.1161,39.213011
IT-CA0319,"Villamassargia - Biblioteca comunale Amelia Camboni","Di pubblica lettura","Enti locali",CAG5V,"Via Monte",20,09010,Villamassargia,SU,"+39 0781 74436","+39 0781 74880",biblioteca.villamassargia@sbis.it,,www.sbis.it/le-biblioteche/biblioteca-villamassargia.html,comunevillamassargia@legalmail.it,http://www.sardegnabiblioteche.it/index.php?xsl=839&s=2&v=9&c=5670&codice=IT-CA0319,8.640988200000038,39.2768894
IT-CA0320,"Villaperuccio - Biblioteca comunale  ","Di pubblica lettura","Enti locali",CAG5C,"Via Eleonora d\'Arborea"," ",09010,Villaperuccio,SU,"+39 0781 950074","+39 0781 950074",responsabile.villaperuccio@sbis.it,,www.sbis.it/le-biblioteche/biblioteca-villaperuccio.html,protocollo@pec.comune.villaperuccio.ci.it,http://www.sardegnabiblioteche.it/index.php?xsl=839&s=2&v=9&c=5670&codice=IT-CA0320,8.671833200000037,39.1114797
IT-CA0321,"Piscinas - Biblioteca comunale","Di pubblica lettura","Enti locali",CAG5P,"Via Principe di Piemonte",3,09010,Piscinas,SU,"+39 0781 963076","+39 0781 964754",biblioteca.piscinas@sbis.it,,www.sbis.it/le-biblioteche/piscinas.html,protocollo@pec.comune.piscinas.ci.it,http://www.sardegnabiblioteche.it/index.php?xsl=839&s=2&v=9&c=5670&codice=IT-CA0321,8.665709,39.077286
IT-CA0322,"Castiadas - Biblioteca comunale","Di pubblica lettura","Enti locali",CAG7C,"Loc. Olia Speciosa","     ",09040,Castiadas,SU,"+39 070 99450323","+39 070 9948000",biblioteca@comune.castiadas.ca.it,,,castiadas.amministrativo@halleycert.it,http://www.sardegnabiblioteche.it/index.php?xsl=839&s=2&v=9&c=5670&codice=IT-CA0322,9.52784870000005,39.2766249
IT-CA0323,"Cagliari - Biblioteca del Centro regionale di programmazione",Speciale,"Regione ed enti regionali",CAGAP,"Via Cesare Battisti  ",s.n.,09123,Cagliari,CA,"+39 070 6064689","+39 070 6064684",crp.biblioteca@regione.sardegna.it,,,crp@pec.regione.sardegna.it,http://www.sardegnabiblioteche.it/index.php?xsl=839&s=2&v=9&c=5670&codice=IT-CA0323,9.102542299999982,39.2238248
IT-CA0324,"Santadi - Biblioteca dell\'Istituto Comprensivo ",Scolastica,"Istituti scolastici",,"Via Mazzini",101,09010,Santadi,SU,"+39 0781 955019","+39 0781 941142",caic825001@istruzione.it,,,caic825001@pec.istruzione.it,http://www.sardegnabiblioteche.it/index.php?xsl=839&s=2&v=9&c=5670&codice=IT-CA0324,8.712911599999984,39.0930723
IT-CA0325,"Uta - Biblioteca della Casa circondariale E. Scalas di Cagliari",Speciale,Ministeri,CAGZ3,"Zona industriale Macchiareddu, 2^ strada ovest"," ",09010,Uta,CA,"070 24931",,cc.cagliari@giustizia.it,,,cc.cagliari@giustiziacert.it,http://www.sardegnabiblioteche.it/index.php?xsl=839&s=2&v=9&c=5670&codice=IT-CA0325,8.951445,39.213865
IT-CA0326,"Iglesias - Biblioteca della Casa circondariale ",Speciale,Ministeri,CAGZ4,"località Sa Stoia","  ",09016,Iglesias,SU,"+39 0781 21101",,,,,cc.iglesias@giustiziacert.it,http://www.sardegnabiblioteche.it/index.php?xsl=839&s=2&v=9&c=5670&codice=IT-CA0326,8.576092000000017,39.2903945
IT-CA0327,"Quartucciu - Biblioteca dell\'Istituto Penale Minorile",Speciale,Ministeri,CAGZ5,"Località Pezzu Mannu"," ",09044,Quartucciu,CA,"+39 070 841863",,,,,ipm.cagliari.dgm@giustiziacert.it,http://www.sardegnabiblioteche.it/index.php?xsl=839&s=2&v=9&c=5670&codice=IT-CA0327,9.183675499999936,39.2730031
IT-CA0328,"Carbonia - Biblioteca del Centro Servizi Culturali ",Speciale,"Enti privati e associazioni",CAGCU,"Via della Vittoria"," ",09013,Carbonia,SU,"+39 0781 671527","+39 0781 662312",umanitaria.carbonia@gmail.com,,www.sbis.it/csc-soc-umanitaria.html,Societa.Umanitaria.C.S.C.Carbonia@pec.umanitaria.it,http://www.sardegnabiblioteche.it/index.php?xsl=839&s=2&v=9&c=5670&codice=IT-CA0328,8.524976599999945,39.1593962
IT-CA0329,"Cagliari - Biblioteca del Liceo delle Scienze Umane e Liceo Linguistico F. De Sanctis",Scolastica,"Istituti scolastici",CAGMA,"Via Cornalias",169,09121,Cagliari,CA,"+39 070 284995","+39 070 287305",bibliodesanctis@tiscali.it,,,cais026001@pec.istruzione.it,http://www.sardegnabiblioteche.it/index.php?xsl=839&s=2&v=9&c=5670&codice=IT-CA0329,9.105714799999987,39.2426142
IT-CA0331,"Cagliari - Biblioteca dell\'Agenzia regionale per la protezione dell\'ambiente della Sardegna (Arpas)",Speciale,"Regione ed enti regionali",,"Via Palabanda",9,09123,Cagliari,CA,"+39 070 678811","+39 070 67881201",info@arpa.sardegna.it,,,arpas@pec.arpa.sardegna.it,http://www.sardegnabiblioteche.it/index.php?xsl=839&s=2&v=9&c=5670&codice=IT-CA0331,9.109821600000032,39.2201668
IT-CA0332,"Serdiana - Biblioteca La Collina Don L. Milani",Speciale,"Enti privati e associazioni",CAGLA,"Località S\'Otta"," ",09040,Serdiana,SU,"+39 070 743923/742430 ","+39 070 743923",biblioteca@comunitalacollina.org,,,cooperazioneconfronto.onlus@legalmail.it,http://www.sardegnabiblioteche.it/index.php?xsl=839&s=2&v=9&c=5670&codice=IT-CA0332,9.16116999999997,39.37509
IT-CA0333,"Università degli studi di Cagliari - Centro di documentazione della Direzione per i servizi bibliotecari - Sistema Bibliotecario di Ateneo","Di supporto alla ricerca e alla didattica nell’Università",Università,CAGU1,"Via San Giorgio, 12 , ingresso 6"," ",09124,Cagliari,CA,"+ 39 070 6756462","+ 39 070 6756468",arghittu@unica.it,,,,http://www.sardegnabiblioteche.it/index.php?xsl=839&s=2&v=9&c=5670&codice=IT-CA0333,9.113489999999956,39.2207
IT-CA0335,"Decimomannu - Biblioteca comunale","Di pubblica lettura","Enti locali",USS33,"Via Aldo Moro",1,09033,Decimomannu,CA,"+39 070 9663041/962140","+39 070 9663041",bcdecimo@gmail.com,,,protocollo@pec.comune.decimomannu.ca.it,http://www.sardegnabiblioteche.it/index.php?xsl=839&s=2&v=9&c=5670&codice=IT-CA0335,8.929757999999993,39.31066999999999
IT-CA0336,"Elmas - Biblioteca comunale","Di pubblica lettura","Enti locali",USS35,"Piazza di Chiesa","3           ",09030,Elmas,CA,"+39 070 2135095","+39 070 2135095",biblioteca@comune.elmas.ca.it,,www.comune.elmas.ca.it/biblioteca,protocollo@pec.comune.elmas.ca.it,http://www.sardegnabiblioteche.it/index.php?xsl=839&s=2&v=9&c=5670&codice=IT-CA0336,9.050941999999964,39.2667975
IT-CA0337,"Monserrato - Biblioteca dell\'Istituto Professionale Servizi per l\'enogastronomia e l\'ospitalità alberghiera Antonio Gramsci",Scolastica,"Istituti scolastici",USS45,"Via Decio Mure",snc,09042,Monserrato,CA,"+39 070 588087",,carh050001@istruzione.it,,,carh050001@pec.istruzione.it,http://www.sardegnabiblioteche.it/index.php?xsl=839&s=2&v=9&c=5670&codice=IT-CA0337,9.13277400000004,39.2597624
IT-CA0338,"Cagliari - Biblioteca del Centro di Servizio per il Volontariato (CSV) Sardegna Solidale",Speciale,"Enti privati e associazioni",USSA5,"Via Cavalcanti",13,09128,Cagliari,CA,"+39 070 345069","+39 070 345032",csv@sardegnasolidale.it,,,amministrazione@pec.sardegnasolidale.it,http://www.sardegnabiblioteche.it/index.php?xsl=839&s=2&v=9&c=5670&codice=IT-CA0338,9.12598300000002,39.2225785
IT-CA0475,"Cagliari - Biblioteca Pasqualina Pillolla del liceo classico G. Siotto Pintor",Scolastica,"Istituti scolastici",CAGPL,"Viale Trento",103,09123,Cagliari,CA,"+39 070276591",,capc050004@istruzione.it,,,capc050004@pec.istruzione.it,http://www.sardegnabiblioteche.it/index.php?xsl=839&s=2&v=9&c=5670&codice=IT-CA0475,9.100748599999974,39.2261698
IT-CA0476,"Maracalagonis - Biblioteca comunale","Di pubblica lettura","Enti locali",CAGMR,"Via Roma",44,09040,Maracalagonis,CA,"+39 070 789470",,biblioteca@comune.maracalagonis.ca.it,,,protocollo@pec.comune.maracalagonis.ca.it,http://www.sardegnabiblioteche.it/index.php?xsl=839&s=2&v=9&c=5670&codice=IT-CA0476,9.228417000000036,39.2875749
IT-CA0477,"Cagliari - Biblioteca Yorick",Speciale,"Enti privati e associazioni",CAGYO,"c/o Sa Manifattura Viale Regina Margherita ",33,09124,Cagliari,CA,"+39 3401802240/3923804404",,biblioyorick@ismascareddas.it,,www.ismascareddas.it,ismascareddas@pec.it,http://www.sardegnabiblioteche.it/index.php?xsl=839&s=2&v=9&c=5670&codice=IT-CA0477," 9.115964313175246",39.21311194644861
IT-CA0478,"Selargius - Biblioteca del Centro Giovanile Domenicano","Di pubblica lettura","Enti ecclesiastici",CAGGD,"Via del Lavoro",15,09047,Selargius,CA,"+39 070 846083","+ 39 070 8488027",biblioteca.cgd@gmail.com,,,,http://www.sardegnabiblioteche.it/index.php?xsl=839&s=2&v=9&c=5670&codice=IT-CA0478,9.175914199999966,39.2652242
IT-CA0479,"Cagliari - Biblioteca del Club alpino italiano",Speciale,"Enti privati e associazioni",CAG$SS006,"Via Piccioni",13,09124,Cagliari,CA,"+39 070 667877 ","+39 070 667877 ",biblioteca@caicagliari.it,,,cagliari@pec.cai.it,http://www.sardegnabiblioteche.it/index.php?xsl=839&s=2&v=9&c=5670&codice=IT-CA0479,9.118321000000037,39.2172117
IT-CA0483,"Cagliari - Biblioteca Galleria Comunale d\'Arte","Di pubblica lettura","Enti locali",CAGGA,"Largo Giuseppe Dessì - Giardini Pubblici","    ",09123,Cagliari,CA,"+39 070 6777598","+39 070 42091 ",museicivici@comune.cagliari.it,,,protocollogenerale@comune.cagliari.legalmail.it,http://www.sardegnabiblioteche.it/index.php?xsl=839&s=2&v=9&c=5670&codice=IT-CA0483,9.116736199999991,39.224996
IT-CA0484,"Cagliari - Biblioteca comunale di quartiere Montevecchio","Di pubblica lettura","Enti locali",CAGQ1,"Via Montevecchio",29,09121,Cagliari,CA,"+39 070 6775640",,biblioteca.montevecchio@comune.cagliari.it,,,protocollogenerale@comune.cagliari.legalmail.it,http://www.sardegnabiblioteche.it/index.php?xsl=839&s=2&v=9&c=5670&codice=IT-CA0484," 9.112285400000019",39.2380588
IT-CA0485,"Cagliari - Biblioteca comunale di quartiere G. B. Tuveri","Di pubblica lettura","Enti locali",CAGQ4,"Via Venezia"," 23",09126,Cagliari,CA,"+39 070 4512249",,biblioteca.tuveri@comune.cagliari.it,,,protocollogenerale@comune.cagliari.legalmail.it,http://www.sardegnabiblioteche.it/index.php?xsl=839&s=2&v=9&c=5670&codice=IT-CA0485,9.136616199999935,39.2070816
IT-CA0486,"Cagliari - Biblioteca San Mauro  Centro Studi - documentazione sulle dipendenze e l'emarginazione",Speciale,"Enti privati e associazioni",,"Via S. Giovanni",287,09127,Cagliari,CA,"+39 070 663358","+39 070 674673",associazione@mondoxsardegna.it,,www.mondoxsardegna.it/index.php/studi-e-ricerche/biblioteca,,http://www.sardegnabiblioteche.it/index.php?xsl=839&s=2&v=9&c=5670&codice=IT-CA0486,9.119860900000049,39.2221705
IT-CA0487,"Cagliari - Biblioteca del Centro Universitario Musicale",Speciale,"Enti privati e associazioni",,"Via Università",55,09124,Cagliari,CA,"+39 070 728644 ","+39 070 728644 ",,,,,http://www.sardegnabiblioteche.it/index.php?xsl=839&s=2&v=9&c=5670&codice=IT-CA0487,9.115076000000045,39.2177383
IT-CA0488,"Cagliari - Biblioteca della Congregazione Figlie di Maria",Speciale,"Enti ecclesiastici",,"Via San Benedetto",7,09128,Cagliari,CA,"+39 070 43354",,istitutob.pastore@tiscali.it,,,,http://www.sardegnabiblioteche.it/index.php?xsl=839&s=2&v=9&c=5670&codice=IT-CA0488,9.126341799999977,39.2219465
IT-CA0489,"Cagliari - Biblioteca del Coni ",Speciale,"Enti pubblici ad amministrazione autonoma",,"Via Fais",5,09128,Cagliari,CA,"+39 070 482261/482519","+39 070 4560809",cagliari@coni.it,,,sardegna@cert.coni.it,http://www.sardegnabiblioteche.it/index.php?xsl=839&s=2&v=9&c=5670&codice=IT-CA0489,9.125838299999941,39.2183651
IT-CA0490,"Cagliari - Biblioteca dell\'Istituto di storia dell\'Europa mediterranea  del CNR",Speciale,"Enti pubblici ad amministrazione autonoma",,"Via G.B. Tuveri",128,09129,Cagliari,CA,"+39 070 403670/403635 ","+39 070 498118",monica.cotza@isem.cnr.it,,,,http://www.sardegnabiblioteche.it/index.php?xsl=839&s=2&v=9&c=5670&codice=IT-CA0490,9.129900799999973,39.2197294
IT-CA0491,"Selargius - Biblioteca del Liceo Scientifico Pitagora",Scolastica,"Istituti scolastici",CAGPI,"Via I Maggio"," ",09047,Selargius,CA,"+39 070 850380","+39 070 841886",bibliopitagora@gmail.com,,,caps120008@pec.istruzione.it,http://www.sardegnabiblioteche.it/index.php?xsl=839&s=2&v=9&c=5670&codice=IT-CA0491,9.18186830000002,39.2882821
IT-CA0492,"Capoterra - Biblioteca Poggio dei Pini",Speciale,"Enti privati e associazioni",CAGPC,"Piazza Alessandro Ricchi"," ",09012,Capoterra,CA,,,bibliotecapoggio@tiscali.it,,,bibliotecapoggiodeipini@pec.it,http://www.sardegnabiblioteche.it/index.php?xsl=839&s=2&v=9&c=5670&codice=IT-CA0492,8.96996050000007,39.1449
IT-CA0493,"Cagliari - Biblioteca del Liceo Euclide",Scolastica,"Istituti scolastici",CAGFS,"Via Ligas"," ",09100,Cagliari,CA,"+39 070 542853","+39 070 542706",caps13000v@istruzione.it,,,caps13000v@pec.istruzione.it,http://www.sardegnabiblioteche.it/index.php?xsl=839&s=2&v=9&c=5670&codice=IT-CA0493," 9.111085900000035",39.2519233
IT-CA0494,"Muravera - Biblioteca dell\'Istituto d\'Istruzione Superiore L. Einaudi - G. Bruno",Scolastica,"Istituti scolastici",CAGFA,"Viale Rinascita"," ",09043,Muravera,SU,"+39 070 9930433","+39 070 9933345",cais00600q@istruzione.it,,,cais00600q@pec.istruzione.it,http://www.sardegnabiblioteche.it/index.php?xsl=839&s=2&v=9&c=5670&codice=IT-CA0494," 9.570176800000013",39.4193878
IT-CA0495,"Cagliari - Biblioteca Multimediale della Sardegna Onlus",Speciale,"Enti privati e associazioni",CAGSD,"Via Giorgio Asproni (sede operativa)",24,09123,Cagliari,CA,,,posta@bibliotecamultimedialesardegna.org,,,medialibrosardegna@pcert.postecert.it,http://www.sardegnabiblioteche.it/index.php?xsl=839&s=2&v=9&c=5670&codice=IT-CA0495,9.105988,39.219382
IT-CA0496,"Cagliari - Biblioteca del Liceo Scientifico A. Pacinotti",Scolastica,"Istituti scolastici",,"Via Liguria",9,09127,Cagliari,CA,"+39 070 490337","+39 070 480970",biblioteca@pacinotti.edu.it,,,caps050007@pec.istruzione.it,http://www.sardegnabiblioteche.it/index.php?xsl=839&s=2&v=9&c=5670&codice=IT-CA0496,9.118040000000065,39.22786
IT-CA0497,"Cagliari - Mediateca Associazione Arc",Speciale,"Enti privati e associazioni",CAGF1,"Via Falzarego",35,09123,Cagliari,CA,"+ 39 3933951812",,associazionearc@gmail.com,,,associazionearc@pec.it,http://www.sardegnabiblioteche.it/index.php?xsl=839&s=2&v=9&c=5670&codice=IT-CA0497,9.1028318,39.2268384
IT-CA0498,"Cagliari - Biblioteca Arti e Mestieri dello Spettacolo ",Speciale,"Enti privati e associazioni",CAGF2,"Via Falzarego",35,09123,Cagliari,CA,3494325227,,biblioteca@teatrodelsale.net,,,teatrodelsale@pec.confcooperative.it,http://www.sardegnabiblioteche.it/index.php?xsl=839&s=2&v=9&c=5670&codice=IT-CA0498,9.1028318,39.2268384
IT-CA0499,"Cagliari - Archivio Multimediale dell’Immaginario ",Speciale,"Enti privati e associazioni",CAGF3,"Via Falzarego",35,09123,Cagliari,CA,"3384199127 - 3387658776",,centrointernazionalefumetto@gmail.com,,,associazionehybris@pec.it,http://www.sardegnabiblioteche.it/index.php?xsl=839&s=2&v=9&c=5670&codice=IT-CA0499,9.1028318,39.2268384
IT-CA0500,"Cagliari - Centro di documentazione per lo spettacolo Marco Parodi",Speciale,"Enti privati e associazioni",CAGF4,"Via Falzarego",35,09123,Cagliari,CA,"+39 070 7321163",,lafabbricailluminata@gmail.com,,,lafabbricailluminata@pec.it,http://www.sardegnabiblioteche.it/index.php?xsl=839&s=2&v=9&c=5670&codice=IT-CA0500,9.1028318,39.2268384
IT-CA0501,"Cagliari - Biblioteca comunale. Bibliobus",Itinerante,"Enti locali",CAGQ2,"c/o MEM - Mediateca del Mediterraneo, via Mameli",164,09121,Cagliari,CA,"+39 3299019746",,bibliobus@comune.cagliari.it,,,protocollogenerale@comune.cagliari.legalmail.it,http://www.sardegnabiblioteche.it/index.php?xsl=839&s=2&v=9&c=5670&codice=IT-CA0501,9.104936,39.220844
IT-CA0502,"Cagliari - Biblioteca del Liceo Classico Statale G.M. Dettori Sebastiano Broccia",Scolastica,"Istituti scolastici",CAGDT,"via Cugia",2,09124,Cagliari,CA,070308257,,"biblioteca@liceoclassicodettori.it ",,,capc03000v@pec.istruzione.it,http://www.sardegnabiblioteche.it/index.php?xsl=839&s=2&v=9&c=5670&codice=IT-CA0502,,
IT-CA0503,"Selargius - Biblioteca Direzione Didattica 2° Circolo",Scolastica,"Istituti scolastici",CAGDD,"Via delle Begonie",1,09047,Selargius,CA,"+ 39 070 570038","+ 39 070 572691",caee03100a@istruzione.it,,,caee03100a@pec.istruzione.it,http://www.sardegnabiblioteche.it/index.php?xsl=839&s=2&v=9&c=5670&codice=IT-CA0503,,
IT-CA0504,"Cagliari - Biblioteca Interculturale Fairuz",Speciale,"Enti privati e associazioni",,"Via Italia",63,09134,Cagliari,CA,"+39  3427566614",,fairuzeventi@gmail.com,,,,http://www.sardegnabiblioteche.it/index.php?xsl=839&s=2&v=9&c=5670&codice=IT-CA0504,9.104548,39.221524
IT-CA0505,"Cagliari - Biblioteca per lo spettacolo ArcoStudio ",Speciale,"Enti privati e associazioni",,"Via Portoscalas",17,09124,Cagliari,CA,"+39 070 663288","+39 070 663288",spazioarcostudio@gmail.com,www.bibliotecaarcostudio.wordpress.com,,asscultilcrogiuolo@pec.it,http://www.sardegnabiblioteche.it/index.php?xsl=839&s=2&v=9&c=5670&codice=IT-CA0505,9.112036,39.218215
IT-CI0035,"Iglesias - Biblioteca Carlo Emanuele Borghesan dell\'Associazione mineraria sarda",Speciale,"Enti privati e associazioni",CAGAM,"via Roma",39,09016,Iglesias,SU,"+39 078122387",,segreteria@associazioneminerariasarda.it,,www.associazioneminerariasarda.it/biblioteca.asp,associazioneminerariasarda@pec.it,http://www.sardegnabiblioteche.it/index.php?xsl=839&s=2&v=9&c=5670&codice=IT-CI0035,8.531747099999961,39.311723
IT-CI0038,"Iglesias - Biblioteca Geopunto",Speciale,"Enti privati e associazioni",USSB3,"c/o Museo Geopunto ex Miniera di Genna Luas",snc,09016,Iglesias,SU,3453187388,,bibliotecageopunto@apgs.it,,,,http://www.sardegnabiblioteche.it/index.php?xsl=839&s=2&v=9&c=5670&codice=IT-CI0038,,
IT-NU0001,"Arzana - Biblioteca comunale Monsignor Virgilio","Di pubblica lettura","Enti locali",,"Via Monsignor Virgilio",55,08040,Arzana,NU,"+39 0782 37883","+39 0782 37883",biblioteca@comunediarzana.it,," ",comunearzana@pec.it,http://www.sardegnabiblioteche.it/index.php?xsl=839&s=2&v=9&c=5670&codice=IT-NU0001,9.52706539999997,39.915492
IT-NU0002,"Bari Sardo - Biblioteca comunale Berto Cara","Di pubblica lettura","Enti locali",,"Via Giacomo Puccini",5,08042,"Bari Sardo",NU,"+39 0782 270070","+39 0782 28065",biblioteca@comunedibarisardo.it,,,protocollo.barisardo@pec.comunas.it,http://www.sardegnabiblioteche.it/index.php?xsl=839&s=2&v=9&c=5670&codice=IT-NU0002,9.647005000000036,39.840615
IT-NU0004,"Birori - Biblioteca comunale","Di pubblica lettura","Enti locali",,"Via Leone XIII","  ",08010,Birori,NU,"+39 0785 21129",,biblioteca.birori@tiscali.it,,,aagg@pec.comune.birori.nu.it,http://www.sardegnabiblioteche.it/index.php?xsl=839&s=2&v=9&c=5670&codice=IT-NU0004,8.81668830000001,40.2636677
IT-NU0005,"Bolotana - Biblioteca comunale Bachisio Raimondo Basolu","Di pubblica lettura","Enti locali",USS76,"Via Stazione",7,08011,Bolotana,NU,"+39 0785 43255","+39 0785 450224",bibliobol@tiscali.it,,,protocollo@pec.comune.bolotana.nu.it,http://www.sardegnabiblioteche.it/index.php?xsl=839&s=2&v=9&c=5670&codice=IT-NU0005,8.958676500000024,40.3266802
IT-NU0006,"Borore - Biblioteca comunale","Di pubblica lettura","Enti locali",CAGBN,"Via Don Milani",3,08016,Borore,NU,"+39 0785 86014","+39 0785 86014",biblioteca_borore@libero.it,,,protocollo@pec.comune.borore.nu.it,http://www.sardegnabiblioteche.it/index.php?xsl=839&s=2&v=9&c=5670&codice=IT-NU0006,8.803707600000052,40.21252459999999
IT-NU0008,"Bortigali - Biblioteca comunale","Di pubblica lettura","Enti locali",CAGBO,"Via Vittorio Emanuele III",11,08012,Bortigali,NU,"+39 0785 80171","+39 0785 80155",biblioteca.bortigali@tiscali.it,www.bibliotecabortigali.it,,segreteria@pec.comune.bortigali.nu.it,http://www.sardegnabiblioteche.it/index.php?xsl=839&s=2&v=9&c=5670&codice=IT-NU0008,8.837329400000044,40.284528
IT-NU0009,"Bosa - Biblioteca diocesana",Speciale,"Enti ecclesiastici",PBE75,"Viale Giovanni XXIII"," ",08013,Bosa,OR,"+39 0785 374552","+39 0785 372163",biblioteca.bosa@diocesialghero-bosa.it,,web.tiscalinet.it/seminariobosa/frambiblio.htm,diocesidialgherobosa@legalmail.it,http://www.sardegnabiblioteche.it/index.php?xsl=839&s=2&v=9&c=5670&codice=IT-NU0009,8.49731650000001,40.2968957
IT-NU0010,"Bosa - Biblioteca civica","Di pubblica lettura","Enti locali",CAGBI,"Piazza del Carmine"," ",08013,Bosa,OR,"+39 0785 377041","+39 0785 373948",biblioteca@comune.bosa.or.it,"   ",,protocollo@pec.comune.bosa.or.it,http://www.sardegnabiblioteche.it/index.php?xsl=839&s=2&v=9&c=5670&codice=IT-NU0010,8.501730199999997,40.2978494
IT-NU0015,"Dorgali - Biblioteca comunale Giovanni Mulas","Di pubblica lettura","Enti locali",,"Corso Umberto",19,08022,Dorgali,NU,"+39 0784 95381","+39 0784 95381",biblioteca@comune.dorgali.nu.it,,,protocollo@pec.comune.dorgali.nu.it,http://www.sardegnabiblioteche.it/index.php?xsl=839&s=2&v=9&c=5670&codice=IT-NU0015,9.590194900000029,40.2889504
IT-NU0018,"Elini - Biblioteca comunale ","Di pubblica lettura","Enti locali",,"Via Pompei","2 ",08040,Elini,NU,"+39 0782 349056","+39 0782 33733",biblio.elini@yahoo.it,,,protocollo@pec.comunedielini.gov.it,http://www.sardegnabiblioteche.it/index.php?xsl=839&s=2&v=9&c=5670&codice=IT-NU0018," 9.531427699999994",39.900215
IT-NU0019,"Escalaplano - Biblioteca comunale","Di pubblica lettura","Enti locali",CAG1E,"Via Sindaco Giovanni Carta ",11,08043,Escalaplano,SU,"+39 070 951736",,biblioescalaplano@tiscali.it,,,protocollo@pec.comune.escalaplano.ca.it,http://www.sardegnabiblioteche.it/index.php?xsl=839&s=2&v=9&c=5670&codice=IT-NU0019,9.35627999999997,39.6263549
IT-NU0020,"Fonni - Biblioteca comunale","Di pubblica lettura","Enti locali",,"Piazza Matteotti","4 ",08023,Fonni,NU,"+39 0784 57285","+39 0784 57285",bibliotecafonni@alice.it,,,protocollo.fonni@legalmail.it,http://www.sardegnabiblioteche.it/index.php?xsl=839&s=2&v=9&c=5670&codice=IT-NU0020,9.25468699999999,40.1194119
IT-NU0024,"Galtellì - Biblioteca comunale Don G. Cosseddu","Di pubblica lettura","Enti locali",CAGI3,"Via Grazia Deledda",67,08020,Galtellì,NU,"+39 0784 909059","+39 0784 90572 (Comune)",biblioteca.galtelli@gmail.com,,,protocollo@pec.galtelli.com,http://www.sardegnabiblioteche.it/index.php?xsl=839&s=2&v=9&c=5670&codice=IT-NU0024,9.610340299999962,40.383391
IT-NU0025,"Gavoi - Biblioteca comunale F.lli Satta","Di pubblica lettura","Enti locali",,"Via Don Bosco",1,08020,Gavoi,NU,"+39 0784 53567","+39 0784 53567",bibliotecagavoi@gmail.com,,,protocollo@pec.comune.gavoi.nu.it,http://www.sardegnabiblioteche.it/index.php?xsl=839&s=2&v=9&c=5670&codice=IT-NU0025,9.195160200000032,40.1614246
IT-NU0026,"Gergei - Biblioteca comunale Teresa Brughitta","Di pubblica lettura","Enti locali",CAG1R,"Via Santa Maria",6,08030,Gergei,SU,"+39 0782 807015","+39 0782 808949",bibliogergei@tiscali.it,,,comune.gergei@legalmail.it,http://www.sardegnabiblioteche.it/index.php?xsl=839&s=2&v=9&c=5670&codice=IT-NU0026,9.096580000000017,39.69903499999999
IT-NU0027,"Isili - Biblioteca della Casa circondariale",Speciale,Ministeri,CAG1Z,"Piazza San Giuseppe Calasanzio",5,08033,Isili,SU,"+39 0782 802910","+39 0782 802205",biblioisili@tiscali.it,,,cr.isili@giustiziacert.it,http://www.sardegnabiblioteche.it/index.php?xsl=839&s=2&v=9&c=5670&codice=IT-NU0027,9.106732700000066,39.7419942
IT-NU0028,"Isili - Biblioteca comunale","Di pubblica lettura","Enti locali",CAGS1,"Piazza San Giuseppe Calasanzio",5,08033,Isili,SU,"+39 0782 802641","+39 0782 804163",biblioisili@tiscali.it,,,protocollo.isili@pec.it,http://www.sardegnabiblioteche.it/index.php?xsl=839&s=2&v=9&c=5670&codice=IT-NU0028,9.106732700000066,39.7419942
IT-NU0030,"Jerzu - Biblioteca comunale ","Di pubblica lettura","Enti locali",,"Via Enrico Berlinguer",22,08044,Jerzu,NU,"+39 0782 70045","+39 0782 70681",biblioteca@comune.jerzu.og.it,,,protocollo@pec.comune.jerzu.og.it,http://www.sardegnabiblioteche.it/index.php?xsl=839&s=2&v=9&c=5670&codice=IT-NU0030,9.51795709999999,39.7928975
IT-NU0031,"Lanusei - Biblioteca comunale Angelino Usai","Di pubblica lettura","Enti locali",,"Via Zanardelli",25,08045,Lanusei,NU,"+39 0782 40111","+39 0782 40168",biblioteca@comunedilanusei.it,,,protocollo.lanusei@pec.comunas.it,http://www.sardegnabiblioteche.it/index.php?xsl=839&s=2&v=9&c=5670&codice=IT-NU0031,9.541328000000021,39.878125
IT-NU0033,"Lanusei - Biblioteca diocesana di Ogliastra  ",Speciale,"Enti ecclesiastici",,"Via Roma",106,08045,Lanusei,NU,"+39 0782 42158","+39 0782 482212",ubclanusei@gmail.com,,,ubclanusei@pec.it,http://www.sardegnabiblioteche.it/index.php?xsl=839&s=2&v=9&c=5670&codice=IT-NU0033,9.54416029999993,39.8755903
IT-NU0034,"Lei - Biblioteca comunale","Di pubblica lettura","Enti locali",,"Via Vittorio Emanuele",13,08010,Lei,NU,"+39 0785 226117",,biblio-lei@tiscali.it,,,segreteria@pec.comune.lei.nu.it,http://www.sardegnabiblioteche.it/index.php?xsl=839&s=2&v=9&c=5670&codice=IT-NU0034,8.920044,40.307733
IT-NU0035,"Lodè - Biblioteca comunale","Di pubblica lettura","Enti locali",CAGLO,"Corso Villanova",10,08020,Lodè,NU,"+39 0784 898018 int. 9","+39 0784 899627",biblioteca@comune.lode.nu.it,,,protocollo@pec.comune.lode.nu.it,http://www.sardegnabiblioteche.it/index.php?xsl=839&s=2&v=9&c=5670&codice=IT-NU0035,9.541402199999993,40.5909205
IT-NU0036,"Lula - Biblioteca comunale","Di pubblica lettura","Enti locali",,"Via Repubblica","   ",08020,Lula,NU,"+39 0784 416894","+39 0784 416894",biblioteca@comune.lula.nu.it,,,protocollo@pec.comune.lula.nu.it,http://www.sardegnabiblioteche.it/index.php?xsl=839&s=2&v=9&c=5670&codice=IT-NU0036,9.440354899999988,40.4848163
IT-NU0037,"Mamoiada - Biblioteca comunale","Di pubblica lettura","Enti locali",,"Piazza Europa",15,08024,Mamoiada,NU,"+39 0784 56763","+39 0784 569240",bibliotecamamoiada@tiscali.it,,,protocollo.mamoiada@pec.comunas.it,http://www.sardegnabiblioteche.it/index.php?xsl=839&s=2&v=9&c=5670&codice=IT-NU0037,9.2836499,40.2109816
IT-NU0038,"Montresta - Biblioteca comunale  ","Di pubblica lettura","Enti locali",,"Via Asilo",2,08010,Montresta,OR,"+39 0785 309007","+39 0785 309007",biblioteca.montresta@tiscali.it,,,protocollo.montresta@pec.it,http://www.sardegnabiblioteche.it/index.php?xsl=839&s=2&v=9&c=5670&codice=IT-NU0038,8.500321,40.377676
IT-NU0039,"Nuoro - Biblioteca del Consorzio  per la pubblica lettura Sebastiano Satta","Di pubblica lettura",Consorzi,CAGCN,"Piazza Asproni",8,08100,Nuoro,NU,"+39 0784 244500","+39 0784 244511",direzione@bibliotecasatta.it,www.bibliotecasatta.org,,direttore.bibliotecasatta@pec.it,http://www.sardegnabiblioteche.it/index.php?xsl=839&s=2&v=9&c=5670&codice=IT-NU0039," 9.337714542466756",40.32117281001083
IT-NU0041,"Nuoro - Biblioteca dell\'Archivio di Stato",Speciale,"Ministero per i beni e le attività culturali",CAGAN,"Via A. Mereu",49,08100,Nuoro,NU,"+39 0784 33476","+39 0784 33469",ass-nu@beniculturali.it,,,mbac-as-nu@mailcert.beniculturali.it,http://www.sardegnabiblioteche.it/index.php?xsl=839&s=2&v=9&c=5670&codice=IT-NU0041,9.335216500000001,40.3183917
IT-NU0042,"Nuoro - Biblioteca diocesana",Speciale,"Enti ecclesiastici",,"Via Guerrazzi",11,08100,Nuoro,NU,"+39 0784 36274","+39 0784 36274",,,,,http://www.sardegnabiblioteche.it/index.php?xsl=839&s=2&v=9&c=5670&codice=IT-NU0042,9.336876299999972,40.32048229999999
IT-NU0043,"Nuragus - Biblioteca comunale Luisu Matta","Di pubblica lettura","Enti locali",CAG1N,"Via Aldo Moro",1,08030,Nuragus,SU,"+39 0782 818068",,biblionuragus@gmail.com,,,comunicazioni@pec.comune.nuragus.ca.it,http://www.sardegnabiblioteche.it/index.php?xsl=839&s=2&v=9&c=5670&codice=IT-NU0043,9.037380999999982,39.7787575
IT-NU0046,"Nurri - Biblioteca comunale Giuseppe Frongia","Di pubblica lettura","Enti locali",CAG1U,"Via Trento",4,08035,Nurri,SU,"+39 0782 842047",,biblionurri@gmail.com,,,protocollo@pec.comune.nurri.ca.it,http://www.sardegnabiblioteche.it/index.php?xsl=839&s=2&v=9&c=5670&codice=IT-NU0046,9.228122999999982,39.711022
IT-NU0047,"Oliena - Biblioteca comunale Mario Ciusa Romagna","Di pubblica lettura","Enti locali",CAGOL,"Via Vittorio Emanuele","72  ",08025,Oliena,NU,"+39 0784 285320","+39 1786070192",biblioliena@gmail.com,,,protocollo@pec.comune.oliena.nu.it,http://www.sardegnabiblioteche.it/index.php?xsl=839&s=2&v=9&c=5670&codice=IT-NU0047,9.403626400000007,40.2705439
IT-NU0048,"Ollolai - Biblioteca comunale Carmelo Floris","Di pubblica lettura","Enti locali",,"Via Santa Susanna"," ",08020,Ollolai,NU,"+39 0784 51550","+39 0784 51499",serv.cult.ollolai@tiscali.it,,,protocollo.ollolai@pec.it,http://www.sardegnabiblioteche.it/index.php?xsl=839&s=2&v=9&c=5670&codice=IT-NU0048," 9.180301999999983",40.1681831
IT-NU0050,"Olzai - Biblioteca del Monastero delle benedettine Mater Unitatis",Speciale,"Enti ecclesiastici",,"Località Perda Majore"," ",08020,Olzai,NU,"+39 0784 52265",,,,,,http://www.sardegnabiblioteche.it/index.php?xsl=839&s=2&v=9&c=5670&codice=IT-NU0050,9.21864000000005,40.1497
IT-NU0053,"Oniferi - Biblioteca comunale Sac. Salvatore Merche","Di pubblica lettura","Enti locali",,"Via S. Satta","4 ",08020,Oniferi,NU,"+39 0784 70262","+39 0784 70262",bibliotecaoniferi@tiscali.it,,,protocollo@pec.comuneoniferi.nu.it,http://www.sardegnabiblioteche.it/index.php?xsl=839&s=2&v=9&c=5670&codice=IT-NU0053,9.181916699999988,40.2521177
IT-NU0054,"Orani - Biblioteca comunale Castagna-Gatti","Di pubblica lettura","Enti locali",,"Via Piero Borrotzu (ex Asilo Marianna Bussalai)",snc,08026,Orani,NU,"+39 0784 74437","+39 0784 731275",biblioteca@comune.orani.nu.it,www.bibliotecaorani.it,,protocollo@pec.comune.orani.nu.it,http://www.sardegnabiblioteche.it/index.php?xsl=839&s=2&v=9&c=5670&codice=IT-NU0054,9.18011039999999,40.2516803
IT-NU0055,"Orgosolo - Biblioteca comunale Progresso e lavoro","Di pubblica lettura","Enti locali",,"Corso Repubblica",338-340,08027,Orgosolo,NU,"+39 0784 402087","+39 0784 403143",bibliotecaorgosolo@virgilio.it,,,protocollo.orgosolo@pec.comunas.it,http://www.sardegnabiblioteche.it/index.php?xsl=839&s=2&v=9&c=5670&codice=IT-NU0055,9.35780909999994,40.203762
IT-NU0057,"Orosei - Biblioteca comunale","Di pubblica lettura","Enti locali",,"Via San Giorgio",12/14,08028,Orosei,NU,"+39 0784 998273","+39 0784 997184",bibliorosei@tiscali.it,,,protocollo@pec.comuneorosei.it,http://www.sardegnabiblioteche.it/index.php?xsl=839&s=2&v=9&c=5670&codice=IT-NU0057,9.69317030000002,40.3786738
IT-NU0058,"Orotelli - Biblioteca comunale Nunzio Cossu","Di pubblica lettura","Enti locali",,"Via Michelangelo Pira",13,08020,Orotelli,NU,"+39 0784 79808","+39 0784 79808",biblioteca@comune.orotelli.nu.it,,,protocollo@pec.comune.orotelli.nu.it,http://www.sardegnabiblioteche.it/index.php?xsl=839&s=2&v=9&c=5670&codice=IT-NU0058,9.112814500000013,40.3024144
IT-NU0059,"Orroli - Biblioteca comunale Sa Libertadi","Di pubblica lettura","Enti locali",CAG1O,"Via Cesare Battisti",2,08030,Orroli,SU,"+39 0782 847768",,bibliorroli@tiscali.it,,,segreteria.orroli@pec.it,http://www.sardegnabiblioteche.it/index.php?xsl=839&s=2&v=9&c=5670&codice=IT-NU0059,9.249481999999944,39.693637
IT-NU0060,"Ortueri - Biblioteca comunale","Di pubblica lettura","Enti locali",CAG2U,"Piazza Marconi",1,08036,Ortueri,NU,"+39 0784 66383","+39 0784 66383",bibliortueri@tiscali.it,,,amministrativo@pec.comune.ortueri.nu.it,http://www.sardegnabiblioteche.it/index.php?xsl=839&s=2&v=9&c=5670&codice=IT-NU0060,8.986560000000054,40.03542119999999
IT-NU0062,"Osini - Biblioteca comunale","Di pubblica lettura","Enti locali",,"Piazza Europa","1 ",08040,Osini,NU,"+39 0782 79031","+39 0782 787004",osini@comune.osini.nu.it,,,protocollo@pec.comune.osini.nu.it,http://www.sardegnabiblioteche.it/index.php?xsl=839&s=2&v=9&c=5670&codice=IT-NU0062,9.497645000000034,39.8220429
IT-NU0063,"Ottana - Biblioteca comunale","Di pubblica lettura","Enti locali",,"Viale Repubblica","41  ",08020,Ottana,NU,"+39 0784 721030","+39 0784 721030",bibliotecaottana@tiscali.it,,,protocollo@pec.comune.ottana.nu.it,http://www.sardegnabiblioteche.it/index.php?xsl=839&s=2&v=9&c=5670&codice=IT-NU0063,9.04640500000005,40.23335700000001
IT-NU0064,"Ovodda - Biblioteca comunale","Di pubblica lettura","Enti locali",CAGOV,"Via Sassari",1,08020,Ovodda,NU,"+39 0784 54023 int. 7","+39 0784 54475 (Comune)",bibliotecaovodda@tiscali.it,,,protocollo.ovodda@pec.comunas.it,http://www.sardegnabiblioteche.it/index.php?xsl=839&s=2&v=9&c=5670&codice=IT-NU0064," 9.161047899999971",40.09636740000001
IT-NU0065,"Posada - Biblioteca comunale","Di pubblica lettura","Enti locali",,"Via Nazionale",1,08020,Posada,NU,"+39 0784 854494","+39 0784 854494",aagg@comune.posada.nu.it,,,protocollo@pec.comune.posada.nu.it,http://www.sardegnabiblioteche.it/index.php?xsl=839&s=2&v=9&c=5670&codice=IT-NU0065,9.725548000000003,40.6377
IT-NU0066,"Sarule - Biblioteca comunale Serafino Soro","Di pubblica lettura","Enti locali",,"Via Manzoni","  ",08020,Sarule,NU,"+39 0784 76519","+39 0784 76519",bibliotecasarule.sarule@alice.it,,,protocollo.sarule@pec.comunas.it,http://www.sardegnabiblioteche.it/index.php?xsl=839&s=2&v=9&c=5670&codice=IT-NU0066,9.165160199999946,40.2241095
IT-NU0068,"Serri - Biblioteca comunale","Di pubblica lettura","Enti locali",CAG1F,"Via Roma",81,08030,Serri,SU,"+39 0782 806252","+39 0782 806023",biblioserri@tiscali.it,,,protocollo@pec.comune.serri.ca.it,http://www.sardegnabiblioteche.it/index.php?xsl=839&s=2&v=9&c=5670&codice=IT-NU0068,9.145975000000021,39.70103
IT-NU0069,"Seulo - Biblioteca comunale","Di pubblica lettura","Enti locali",CAG1S,"Via Ospitone",97,08030,Seulo,SU,"+39 0782 589001","+39 0782 589001",biblioteca.seulo@tiscali.it,,,protocollo@pec.comune.seulo.ca.it,http://www.sardegnabiblioteche.it/index.php?xsl=839&s=2&v=9&c=5670&codice=IT-NU0069,9.237599899999964,39.868885
IT-NU0070,"Silanus - Biblioteca comunale Giuseppe Fiori","Di pubblica lettura","Enti locali",CAGNU,"Vico Stazione"," ",08017,Silanus,NU,"+39 0785 840021","+39 0785 84273",biblioteca.silanus@hotmail.it,,,protocollo.silanus@pec.comunas.it,http://www.sardegnabiblioteche.it/index.php?xsl=839&s=2&v=9&c=5670&codice=IT-NU0070,8.89011000000005,40.2873406
IT-NU0071,"Tertenia - Biblioteca comunale Padre V. M. Cannas","Di pubblica lettura","Enti locali",,"Via Barbagia",7,08047,Tertenia,NU,"+39 0782 908015","+39 0782 93009",bibliotertenia@yahoo.com,,,protocollo.tertenia@pec.comunas.it,http://www.sardegnabiblioteche.it/index.php?xsl=839&s=2&v=9&c=5670&codice=IT-NU0071," 9.578309999999987",39.69578
IT-NU0072,"Teti - Biblioteca comunale Giuseppe Putzu","Di pubblica lettura","Enti locali",CAG2E,"Largo Gramsci",2,08030,Teti,NU,"+39 0784 68280","+39 0784 68280",bibliotecateti@tiscali.it,,,comuneteti@pec.it,http://www.sardegnabiblioteche.it/index.php?xsl=839&s=2&v=9&c=5670&codice=IT-NU0072,9.118363000000045,40.09566299999999
IT-NU0073,"Tonara - Biblioteca comunale Grazia Deledda","Di pubblica lettura","Enti locali",CAG2C,"Via Sant\'Antonio 2"," 2",08039,Tonara,NU,"+39 0784 63291","+39 0784 63246 (Comune)",bibliotonara1@tiscali.it,,,protocollo@pec.comunetonara.it,http://www.sardegnabiblioteche.it/index.php?xsl=839&s=2&v=9&c=5670&codice=IT-NU0073,9.17314220000003,40.0257254
IT-NU0075,"Tortolì - Biblioteca comunale Emilio e Joyce Lussu","Di pubblica lettura","Enti locali",,"Via Vittorio Emanuele",23,08048,Tortolì,NU,"+39 0782 600792",,biblioteca@comuneditortoli.it,,,protocollo@pec.comuneditortoli.it,http://www.sardegnabiblioteche.it/index.php?xsl=839&s=2&v=9&c=5670&codice=IT-NU0075,9.658108999999968,39.92748479999999
IT-NU0076,"Triei - Biblioteca comunale ","Di pubblica lettura","Enti locali",,"Viale Europa",6,08040,Triei,NU,"+39 0782 618363","+39 0782 618363",biblioteca@comunetriei.it,,,protocollo@pec.comune.triei.ogliastra.it,http://www.sardegnabiblioteche.it/index.php?xsl=839&s=2&v=9&c=5670&codice=IT-NU0076,9.640270099999952,40.0338162
IT-NU0077,"Ussassai - Biblioteca comunale","Di pubblica lettura","Enti locali",,"Via Nazionale",120,08040,Ussassai,NU,"+39 0782 55710","+39 9782 55890",socioculturali@comune.ussassai.og.it,,,protocollo@pec.comune.ussassai.og.it,http://www.sardegnabiblioteche.it/index.php?xsl=839&s=2&v=9&c=5670&codice=IT-NU0077,9.39409999999998,39.81005
IT-NU0078,"Aritzo - Biblioteca comunale","Di pubblica lettura","Enti locali",CAG2A,"Via Caserma"," 4",08031,Aritzo,NU,"+39 0784 628017","+39 0784 629293",biblioaritzo@tiscali.it,,,protocollo@pec.comune.aritzo.nu.it,http://www.sardegnabiblioteche.it/index.php?xsl=839&s=2&v=9&c=5670&codice=IT-NU0078,9.196545799999967,39.9572
IT-NU0079,"Baunei - Biblioteca comunale Italo Zucca","Di pubblica lettura","Enti locali",,"Via San Nicolò","1 ",08040,Baunei,NU,"+39 0782 610761","+39 0782 612205",bibliotecabaunei@tiscali.it,,,protocollo@pec.comunedibaunei.it,http://www.sardegnabiblioteche.it/index.php?xsl=839&s=2&v=9&c=5670&codice=IT-NU0079,9.66443049999998,40.0309298
IT-NU0080,"Macomer - Biblioteca comunale","Di pubblica lettura","Enti locali",USS77,"Via Ariosto",11,08015,Macomer,NU,"+39 0785 790856","+39 0785 749098",biblioteca@comune.macomer.nu.it,www.bibliotecadimacomer.it,,protocollo@pec.comune.macomer.nu.it,http://www.sardegnabiblioteche.it/index.php?xsl=839&s=2&v=9&c=5670&codice=IT-NU0080,8.777723000000037,40.267273
IT-NU0082,"Siniscola - Biblioteca comunale Grazia Deledda","Di pubblica lettura","Enti locali",CAGNI,"Via Roma","37 ",08029,Siniscola,NU,"+39 0784 878654","+39 0784 878654",siniscolabiblioteca@gmail.com,,,protocollo@pec.comune.siniscola.nu.it,http://www.sardegnabiblioteche.it/index.php?xsl=839&s=2&v=9&c=5670&codice=IT-NU0082,9.6940204,40.5755719
IT-NU0083,"Villagrande Strisaili - Biblioteca comunale Santa Barbara","Di pubblica lettura","Enti locali",,"Via Roma",111,08049,"Villagrande Strisaili",NU,"+39 0782 319001","+39 0782 319001",mcannas@comune.villagrandestrisaili.og.it,,,protocollo@pec.comune.villagrandestrisaili.og.it,http://www.sardegnabiblioteche.it/index.php?xsl=839&s=2&v=9&c=5670&codice=IT-NU0083," 9.507243000000016",39.958685
IT-NU0084,"Urzulei - Biblioteca comunale","Di pubblica lettura","Enti locali",,"Via Grazia Deledda",23,08040,Urzulei,NU,"+39 0782 222311","+39 0782 222311",bibliotecaurzulei@tiscali.it,,,protocollo.urzulei@pec.comunas.it,http://www.sardegnabiblioteche.it/index.php?xsl=839&s=2&v=9&c=5670&codice=IT-NU0084," 9.509393000000045",40.0928233
IT-NU0085,"Lotzorai - Biblioteca comunale","Di pubblica lettura","Enti locali",,"Via Repubblica"," ",08040,Lotzorai,NU,"+39 0782 220081","+39 0782 669648 (Comune)",cultura.lotzorai@tiscali.it,,,protocollo.lotzorai@pec.comunas.it,http://www.sardegnabiblioteche.it/index.php?xsl=839&s=2&v=9&c=5670&codice=IT-NU0085,9.658367099999964,39.9689124
